[{"gh6":"tdr1v6","lat":12.97715,"lon":77.57726,"label":"BTP040 - Elite Junction","violations":25711,"impact_score":100.0,"avg_severity":0.702,"junction_frac":0.993,"main_road_frac":0.014,"top_violation":"NO PARKING"},{"gh6":"tdr1v2","lat":12.96457,"lon":77.57713,"label":"BTP082 - KR Market Junction","violations":14260,"impact_score":94.8,"avg_severity":0.761,"junction_frac":0.983,"main_road_frac":0.026,"top_violation":"WRONG PARKING"},{"gh6":"tdr1y5","lat":12.98145,"lon":77.61016,"label":"BTP051 - Safina Plaza Junction","violations":14436,"impact_score":93.6,"avg_severity":0.729,"junction_frac":0.737,"main_road_frac":0.014,"top_violation":"WRONG PARKING"},{"gh6":"tdr1vg","lat":12.98269,"lon":77.60352,"label":"BTP211 - Central Street Junction","violations":10109,"impact_score":90.9,"avg_severity":0.739,"junction_frac":0.969,"main_road_frac":0.032,"top_violation":"WRONG PARKING"},{"gh6":"tdr1v3","lat":12.9731,"lon":77.57864,"label":"BTP044 - Sagar Theatre Junction","violations":9224,"impact_score":89.4,"avg_severity":0.716,"junction_frac":0.913,"main_road_frac":0.027,"top_violation":"WRONG PARKING"},{"gh6":"tdr1uw","lat":12.99914,"lon":77.54961,"label":"BTP027 - Modi Bridge Junction","violations":7709,"impact_score":88.3,"avg_severity":0.747,"junction_frac":1.0,"main_road_frac":0.023,"top_violation":"WRONG PARKING"},{"gh6":"tdr1u9","lat":12.97412,"lon":77.54652,"label":"BTP020 - Hosahalli Metro Station","violations":7804,"impact_score":87.5,"avg_severity":0.684,"junction_frac":0.991,"main_road_frac":0.011,"top_violation":"NO PARKING"},{"gh6":"tdr1xf","lat":12.93358,"lon":77.69092,"label":"HAL Old Airport","violations":8962,"impact_score":86.9,"avg_severity":0.754,"junction_frac":0.0,"main_road_frac":0.243,"top_violation":"NO PARKING"},{"gh6":"tdr1tr","lat":12.96312,"lon":77.5774,"label":"BTP082 - KR Market Junction","violations":5230,"impact_score":85.0,"avg_severity":0.788,"junction_frac":1.0,"main_road_frac":0.044,"top_violation":"WRONG PARKING"},{"gh6":"tdr4hb","lat":13.01095,"lon":77.5545,"label":"BTP001 - 10th Cross, Dr. Rajkumar Road","violations":7499,"impact_score":85.0,"avg_severity":0.72,"junction_frac":0.324,"main_road_frac":0.003,"top_violation":"WRONG PARKING"},{"gh6":"tdr4me","lat":13.07123,"lon":77.58807,"label":"Kodigehalli","violations":6071,"impact_score":81.6,"avg_severity":0.743,"junction_frac":0.0,"main_road_frac":0.006,"top_violation":"WRONG PARKING"},{"gh6":"tdr1v4","lat":12.97782,"lon":77.57306,"label":"BTP048 - Shanthala Junction","violations":3805,"impact_score":81.4,"avg_severity":0.753,"junction_frac":1.0,"main_road_frac":0.083,"top_violation":"WRONG PARKING"},{"gh6":"tdr1u2","lat":12.96516,"lon":77.53808,"label":"BTP016 - 5th Main Road, RPC Layout","violations":3736,"impact_score":80.7,"avg_severity":0.752,"junction_frac":0.931,"main_road_frac":0.02,"top_violation":"WRONG PARKING"},{"gh6":"tdr5p8","lat":13.18456,"lon":77.67982,"label":"Chikkajala","violations":3959,"impact_score":78.0,"avg_severity":0.731,"junction_frac":0.0,"main_road_frac":0.201,"top_violation":"NO PARKING"},{"gh6":"tdr385","lat":12.93969,"lon":77.69573,"label":"HAL Old Airport","violations":2382,"impact_score":76.9,"avg_severity":0.906,"junction_frac":0.0,"main_road_frac":0.66,"top_violation":"PARKING IN A MAIN ROAD"},{"gh6":"tdr1vt","lat":12.99312,"lon":77.58907,"label":"BTP032 - Windsor Circle","violations":2577,"impact_score":76.1,"avg_severity":0.738,"junction_frac":0.767,"main_road_frac":0.008,"top_violation":"WRONG PARKING"},{"gh6":"tdr1th","lat":12.94388,"lon":77.57109,"label":"BTP108 - Tagore Park Junction","violations":2443,"impact_score":76.0,"avg_severity":0.729,"junction_frac":0.919,"main_road_frac":0.037,"top_violation":"WRONG PARKING"},{"gh6":"tdr1zm","lat":12.99609,"lon":77.66818,"label":"Mahadevapura","violations":2304,"impact_score":75.5,"avg_severity":0.864,"junction_frac":0.0,"main_road_frac":0.51,"top_violation":"PARKING IN A MAIN ROAD"},{"gh6":"tdr4h8","lat":13.01081,"lon":77.55023,"label":"BTP023 - Mahalaxmi Layout Entrance","violations":2631,"impact_score":75.4,"avg_severity":0.74,"junction_frac":0.539,"main_road_frac":0.007,"top_violation":"WRONG PARKING"},{"gh6":"tdr1vf","lat":12.97965,"lon":77.60711,"label":"BTP051 - Safina Plaza Junction","violations":2297,"impact_score":75.1,"avg_severity":0.71,"junction_frac":0.918,"main_road_frac":0.015,"top_violation":"WRONG PARKING"},{"gh6":"tdr1vn","lat":12.99942,"lon":77.57129,"label":"Malleshwaram","violations":3160,"impact_score":74.8,"avg_severity":0.736,"junction_frac":0.0,"main_road_frac":0.012,"top_violation":"WRONG PARKING"},{"gh6":"tdr1uv","lat":12.99312,"lon":77.5545,"label":"BTP011 - RR Kalyana Mantapa, Dr. Rajkumar Road","violations":2185,"impact_score":74.8,"avg_severity":0.766,"junction_frac":0.757,"main_road_frac":0.028,"top_violation":"WRONG PARKING"},{"gh6":"tdr600","lat":13.00829,"lon":77.69576,"label":"K.R. Pura","violations":2360,"impact_score":74.5,"avg_severity":0.817,"junction_frac":0.0,"main_road_frac":0.341,"top_violation":"WRONG PARKING"},{"gh6":"tdr1vp","lat":13.0059,"lon":77.57114,"label":"Malleshwaram","violations":3144,"impact_score":74.3,"avg_severity":0.707,"junction_frac":0.0,"main_road_frac":0.001,"top_violation":"WRONG PARKING"},{"gh6":"tdr1uf","lat":12.97574,"lon":77.559,"label":"BTP074 - Leprosy Hospital Junction","violations":2191,"impact_score":73.5,"avg_severity":0.713,"junction_frac":0.592,"main_road_frac":0.043,"top_violation":"NO PARKING"},{"gh6":"tdr1ug","lat":12.98456,"lon":77.5562,"label":"BTP061 - Bhashyam Circle","violations":1922,"impact_score":73.4,"avg_severity":0.698,"junction_frac":1.0,"main_road_frac":0.024,"top_violation":"NO PARKING"},{"gh6":"tdr1zw","lat":13.00041,"lon":77.67707,"label":"Mahadevapura","violations":2122,"impact_score":72.9,"avg_severity":0.788,"junction_frac":0.0,"main_road_frac":0.319,"top_violation":"NO PARKING"},{"gh6":"tdr1v0","lat":12.96586,"lon":77.57379,"label":"BTP083 - AS Char Street, Mysore Road","violations":1471,"impact_score":72.7,"avg_severity":0.801,"junction_frac":0.95,"main_road_frac":0.278,"top_violation":"WRONG PARKING"},{"gh6":"tdr1w4","lat":12.93563,"lon":77.61546,"label":"BTP135 - UCO Bank Junction","violations":1644,"impact_score":71.6,"avg_severity":0.682,"junction_frac":0.935,"main_road_frac":0.117,"top_violation":"NO PARKING"},{"gh6":"tdr1vc","lat":12.97127,"lon":77.60051,"label":"BTP063 - Siddalingaiah Circle","violations":1918,"impact_score":71.0,"avg_severity":0.655,"junction_frac":0.498,"main_road_frac":0.073,"top_violation":"NO PARKING"},{"gh6":"tdr1y1","lat":12.97335,"lon":77.61479,"label":"BTP141 - Palmgroove Junction","violations":2327,"impact_score":70.7,"avg_severity":0.662,"junction_frac":0.019,"main_road_frac":0.018,"top_violation":"NO PARKING"},{"gh6":"tdr4jt","lat":13.03544,"lon":77.58908,"label":"Hebbala","violations":2314,"impact_score":70.5,"avg_severity":0.662,"junction_frac":0.0,"main_road_frac":0.002,"top_violation":"NO PARKING"},{"gh6":"tdr1sw","lat":12.95377,"lon":77.54335,"label":"BTP095 - Satellite Bus Stand, Mysore Road","violations":1230,"impact_score":70.4,"avg_severity":0.786,"junction_frac":1.0,"main_road_frac":0.132,"top_violation":"WRONG PARKING"},{"gh6":"tdr4pb","lat":13.00823,"lon":77.69451,"label":"K.R. Pura","violations":1770,"impact_score":70.4,"avg_severity":0.78,"junction_frac":0.0,"main_road_frac":0.198,"top_violation":"WRONG PARKING"},{"gh6":"tdr1nc","lat":12.8418,"lon":77.64588,"label":"Electronic City","violations":1999,"impact_score":70.0,"avg_severity":0.726,"junction_frac":0.0,"main_road_frac":0.004,"top_violation":"WRONG PARKING"},{"gh6":"tdr1x9","lat":12.92713,"lon":77.67932,"label":"Bellandur","violations":2017,"impact_score":70.0,"avg_severity":0.722,"junction_frac":0.0,"main_road_frac":0.006,"top_violation":"WRONG PARKING"},{"gh6":"tdr38j","lat":12.95012,"lon":77.69974,"label":"HAL Old Airport","violations":1280,"impact_score":69.9,"avg_severity":0.876,"junction_frac":0.0,"main_road_frac":0.588,"top_violation":"PARKING IN A MAIN ROAD"},{"gh6":"tdr1v7","lat":12.98212,"lon":77.57691,"label":"BTP057 - Anand Rao Junction","violations":1334,"impact_score":69.8,"avg_severity":0.728,"junction_frac":0.928,"main_road_frac":0.022,"top_violation":"WRONG PARKING"},{"gh6":"tdr1uy","lat":12.99835,"lon":77.55302,"label":"BTP008 - Navarang Theatre","violations":1222,"impact_score":69.6,"avg_severity":0.781,"junction_frac":0.937,"main_road_frac":0.003,"top_violation":"WRONG PARKING"},{"gh6":"tdr1qw","lat":12.91237,"lon":77.63566,"label":"HSR Layout","violations":1990,"impact_score":69.4,"avg_severity":0.691,"junction_frac":0.0,"main_road_frac":0.003,"top_violation":"NO PARKING"},{"gh6":"tdr1t3","lat":12.92864,"lon":77.58075,"label":"BTP189 - New Diagonal Road, Jayanagar","violations":1435,"impact_score":69.2,"avg_severity":0.625,"junction_frac":1.0,"main_road_frac":0.009,"top_violation":"NO PARKING"},{"gh6":"tdr1uu","lat":12.98896,"lon":77.55472,"label":"BTP204 - ESI Hospital, Rajajinagar","violations":1141,"impact_score":68.7,"avg_severity":0.751,"junction_frac":1.0,"main_road_frac":0.001,"top_violation":"WRONG PARKING"},{"gh6":"tdr1ud","lat":12.97717,"lon":77.54543,"label":"BTP068 - Veeresh Theatre Junction","violations":1201,"impact_score":68.6,"avg_severity":0.7,"junction_frac":1.0,"main_road_frac":0.022,"top_violation":"NO PARKING"},{"gh6":"tdr1wz","lat":12.95996,"lon":77.64573,"label":"BTP148 - 17th Main, Doopanahalli Bus Stop","violations":1616,"impact_score":68.3,"avg_severity":0.648,"junction_frac":0.261,"main_road_frac":0.092,"top_violation":"NO PARKING"},{"gh6":"tdr1t7","lat":12.93856,"lon":77.58402,"label":"BTP186 - 9th Cross, 4th Main, Jayanagar","violations":1244,"impact_score":68.1,"avg_severity":0.705,"junction_frac":0.754,"main_road_frac":0.006,"top_violation":"WRONG PARKING"},{"gh6":"tdr1yj","lat":12.99546,"lon":77.61351,"label":"Pulikeshinagar(F.Town)","violations":1793,"impact_score":68.0,"avg_severity":0.669,"junction_frac":0.0,"main_road_frac":0.01,"top_violation":"NO PARKING"},{"gh6":"tdr1tq","lat":12.95678,"lon":77.58014,"label":"BTP167 - JC Road Junction","violations":1025,"impact_score":67.9,"avg_severity":0.758,"junction_frac":1.0,"main_road_frac":0.051,"top_violation":"WRONG PARKING"},{"gh6":"tdr38n","lat":12.95703,"lon":77.70103,"label":"HAL Old Airport","violations":1524,"impact_score":67.7,"avg_severity":0.712,"junction_frac":0.0,"main_road_frac":0.159,"top_violation":"NO PARKING"},{"gh6":"tdr1yc","lat":12.97038,"lon":77.64608,"label":"Jeevanbheemanagar","violations":1351,"impact_score":67.6,"avg_severity":0.75,"junction_frac":0.0,"main_road_frac":0.272,"top_violation":"NO PARKING"},{"gh6":"tdr3b8","lat":12.96489,"lon":77.71819,"label":"HAL Old Airport","violations":1400,"impact_score":67.2,"avg_severity":0.79,"junction_frac":0.0,"main_road_frac":0.01,"top_violation":"WRONG PARKING"},{"gh6":"tdr1ux","lat":13.0039,"lon":77.54969,"label":"BTP026 - 1st Block Junction, Rajajinagar","violations":950,"impact_score":67.1,"avg_severity":0.768,"junction_frac":0.994,"main_road_frac":0.014,"top_violation":"WRONG PARKING"},{"gh6":"tdr1zz","lat":13.00569,"lon":77.68575,"label":"K.R. Pura","violations":1351,"impact_score":67.0,"avg_severity":0.771,"junction_frac":0.0,"main_road_frac":0.088,"top_violation":"WRONG PARKING"},{"gh6":"tdr1xc","lat":12.93021,"lon":77.68556,"label":"HAL Old Airport","violations":1275,"impact_score":66.9,"avg_severity":0.764,"junction_frac":0.0,"main_road_frac":0.209,"top_violation":"NO PARKING"},{"gh6":"tdr1tz","lat":12.96196,"lon":77.59892,"label":"BTP172 - Nanjappa Circle","violations":1172,"impact_score":66.9,"avg_severity":0.618,"junction_frac":0.996,"main_road_frac":0.002,"top_violation":"NO PARKING"},{"gh6":"tdr1us","lat":12.98887,"lon":77.55044,"label":"BTP170 - Dr. Bheem Rao Palace, Chord Road","violations":845,"impact_score":66.8,"avg_severity":0.803,"junction_frac":0.999,"main_road_frac":0.16,"top_violation":"WRONG PARKING"},{"gh6":"tdr1vs","lat":12.99116,"lon":77.58858,"label":"BTP032 - Windsor Circle","violations":923,"impact_score":66.4,"avg_severity":0.766,"junction_frac":0.901,"main_road_frac":0.005,"top_violation":"WRONG PARKING"},{"gh6":"tdr1u3","lat":12.97232,"lon":77.5377,"label":"BTP028 - Vijayanagar Bus Stand Junction","violations":908,"impact_score":66.3,"avg_severity":0.744,"junction_frac":1.0,"main_road_frac":0.019,"top_violation":"WRONG PARKING"},{"gh6":"tdr1vj","lat":12.99469,"lon":77.57146,"label":"Malleshwaram","violations":1466,"impact_score":66.3,"avg_severity":0.696,"junction_frac":0.0,"main_road_frac":0.005,"top_violation":"NO PARKING"},{"gh6":"tdr1uk","lat":12.988,"lon":77.53754,"label":"BTP208 - Havanur Circle","violations":826,"impact_score":66.3,"avg_severity":0.8,"junction_frac":1.0,"main_road_frac":0.067,"top_violation":"WRONG PARKING"},{"gh6":"tdr1y4","lat":12.97985,"lon":77.61342,"label":"BTP051 - Safina Plaza Junction","violations":1167,"impact_score":66.1,"avg_severity":0.693,"junction_frac":0.44,"main_road_frac":0.021,"top_violation":"NO PARKING"},{"gh6":"tdr1sp","lat":12.96086,"lon":77.52804,"label":"BTP017 - Attiguppe Circle","violations":996,"impact_score":65.5,"avg_severity":0.793,"junction_frac":0.366,"main_road_frac":0.01,"top_violation":"WRONG PARKING"},{"gh6":"tdr1vu","lat":12.98915,"lon":77.59937,"label":"BTP171 - Indian Express (Balekundri)","violations":1221,"impact_score":65.4,"avg_severity":0.737,"junction_frac":0.043,"main_road_frac":0.026,"top_violation":"WRONG PARKING"},{"gh6":"tdr1tw","lat":12.95525,"lon":77.58631,"label":"BTP192 - Urvashi Theater","violations":948,"impact_score":65.0,"avg_severity":0.631,"junction_frac":0.998,"main_road_frac":0.004,"top_violation":"NO PARKING"},{"gh6":"tdr1v8","lat":12.96794,"lon":77.58858,"label":"BTP076 - Hudson Circle","violations":836,"impact_score":64.8,"avg_severity":0.693,"junction_frac":1.0,"main_road_frac":0.031,"top_violation":"NO PARKING"},{"gh6":"tdr1sm","lat":12.95219,"lon":77.5408,"label":"BTP096 - Gali Anjaneya Temple","violations":738,"impact_score":64.7,"avg_severity":0.763,"junction_frac":0.851,"main_road_frac":0.24,"top_violation":"NO PARKING"},{"gh6":"tdr5nc","lat":13.19131,"lon":77.64624,"label":"Chikkajala","violations":949,"impact_score":64.4,"avg_severity":0.752,"junction_frac":0.0,"main_road_frac":0.36,"top_violation":"NO PARKING"},{"gh6":"tdr3bj","lat":12.99522,"lon":77.69646,"label":"Mahadevapura","violations":953,"impact_score":64.2,"avg_severity":0.776,"junction_frac":0.0,"main_road_frac":0.252,"top_violation":"NO PARKING"},{"gh6":"tdr1z1","lat":12.97171,"lon":77.6581,"label":"Jeevanbheemanagar","violations":1266,"impact_score":63.9,"avg_severity":0.627,"junction_frac":0.0,"main_road_frac":0.026,"top_violation":"NO PARKING"},{"gh6":"tdr1yn","lat":12.99994,"lon":77.61114,"label":"Pulikeshinagar(F.Town)","violations":1140,"impact_score":63.4,"avg_severity":0.675,"junction_frac":0.0,"main_road_frac":0.004,"top_violation":"NO PARKING"},{"gh6":"tdr4j0","lat":13.00848,"lon":77.57088,"label":"Malleshwaram","violations":1052,"impact_score":63.3,"avg_severity":0.723,"junction_frac":0.0,"main_road_frac":0.005,"top_violation":"WRONG PARKING"},{"gh6":"tdr1y3","lat":12.97348,"lon":77.62267,"label":"BTP143 - ASC Junction","violations":1163,"impact_score":63.2,"avg_severity":0.631,"junction_frac":0.015,"main_road_frac":0.039,"top_violation":"NO PARKING"},{"gh6":"tdr4jr","lat":13.04757,"lon":77.57594,"label":"Kodigehalli","violations":997,"impact_score":63.1,"avg_severity":0.75,"junction_frac":0.0,"main_road_frac":0.001,"top_violation":"WRONG PARKING"},{"gh6":"tdr1vd","lat":12.97736,"lon":77.59038,"label":"BTP041 - Gopal Gowda Circle","violations":716,"impact_score":63.0,"avg_severity":0.663,"junction_frac":1.0,"main_road_frac":0.116,"top_violation":"NO PARKING"},{"gh6":"tdr1yb","lat":12.96843,"lon":77.64156,"label":"BTP148 - 17th Main, Doopanahalli Bus Stop","violations":752,"impact_score":62.9,"avg_severity":0.735,"junction_frac":0.436,"main_road_frac":0.215,"top_violation":"NO PARKING"},{"gh6":"tdr1qt","lat":12.90648,"lon":77.63077,"label":"HSR Layout","violations":938,"impact_score":62.9,"avg_severity":0.782,"junction_frac":0.0,"main_road_frac":0.0,"top_violation":"WRONG PARKING"},{"gh6":"tdr4js","lat":13.03501,"lon":77.58891,"label":"Hebbala","violations":1151,"impact_score":62.7,"avg_severity":0.623,"junction_frac":0.0,"main_road_frac":0.0,"top_violation":"NO PARKING"},{"gh6":"tdr1ue","lat":12.98305,"lon":77.54887,"label":"BTP024 - NPS, Vijayanagar","violations":637,"impact_score":62.6,"avg_severity":0.738,"junction_frac":0.997,"main_road_frac":0.035,"top_violation":"WRONG PARKING"},{"gh6":"tdr1tx","lat":12.96157,"lon":77.58959,"label":"BTP101 - Blood Bank Circle, KH Road","violations":696,"impact_score":62.3,"avg_severity":0.659,"junction_frac":1.0,"main_road_frac":0.017,"top_violation":"NO PARKING"},{"gh6":"tdr1vk","lat":12.98758,"lon":77.57716,"label":"BTP054 - Shivananda Circle","violations":762,"impact_score":62.0,"avg_severity":0.665,"junction_frac":0.608,"main_road_frac":0.031,"top_violation":"NO PARKING"},{"gh6":"tdr3b3","lat":12.97163,"lon":77.71199,"label":"HAL Old Airport","violations":783,"impact_score":61.9,"avg_severity":0.776,"junction_frac":0.0,"main_road_frac":0.189,"top_violation":"WRONG PARKING"},{"gh6":"tdr1vh","lat":12.98957,"lon":77.57289,"label":"Sheshadripuram","violations":959,"impact_score":61.4,"avg_severity":0.654,"junction_frac":0.0,"main_road_frac":0.013,"top_violation":"NO PARKING"},{"gh6":"tdr4tb","lat":13.09717,"lon":77.59955,"label":"Yelahanka","violations":820,"impact_score":60.9,"avg_severity":0.728,"junction_frac":0.0,"main_road_frac":0.02,"top_violation":"WRONG PARKING"},{"gh6":"tdr1mv","lat":12.90836,"lon":77.60064,"label":"BTP130 - GD Mara Junction","violations":621,"impact_score":60.6,"avg_severity":0.622,"junction_frac":1.0,"main_road_frac":0.031,"top_violation":"NO PARKING"},{"gh6":"tdr38h","lat":12.94406,"lon":77.69789,"label":"HAL Old Airport","violations":561,"impact_score":60.5,"avg_severity":0.844,"junction_frac":0.0,"main_road_frac":0.437,"top_violation":"PARKING IN A MAIN ROAD"},{"gh6":"tdr1t9","lat":12.92736,"lon":77.58624,"label":"BTP226 - 33rd Cross, 11th Main, Jayanagar","violations":526,"impact_score":60.5,"avg_severity":0.711,"junction_frac":0.947,"main_road_frac":0.156,"top_violation":"NO PARKING"},{"gh6":"tdr4hk","lat":13.03062,"lon":77.53646,"label":"Yeshwanthpura","violations":655,"impact_score":60.4,"avg_severity":0.807,"junction_frac":0.0,"main_road_frac":0.162,"top_violation":"WRONG PARKING"},{"gh6":"tdr4md","lat":13.06366,"lon":77.59028,"label":"Kodigehalli","violations":729,"impact_score":60.3,"avg_severity":0.769,"junction_frac":0.0,"main_road_frac":0.025,"top_violation":"WRONG PARKING"},{"gh6":"tdr38r","lat":12.96012,"lon":77.71628,"label":"HAL Old Airport","violations":702,"impact_score":60.3,"avg_severity":0.801,"junction_frac":0.0,"main_road_frac":0.009,"top_violation":"WRONG PARKING"},{"gh6":"tdr1uq","lat":12.99866,"lon":77.54087,"label":"BTP206 - Shankara Mutt Circle, Vijayanagar","violations":476,"impact_score":60.2,"avg_severity":0.792,"junction_frac":0.962,"main_road_frac":0.013,"top_violation":"WRONG PARKING"},{"gh6":"tdr1ub","lat":12.96437,"lon":77.55488,"label":"BTP091 - Sirsi Circle","violations":660,"impact_score":60.2,"avg_severity":0.737,"junction_frac":0.129,"main_road_frac":0.18,"top_violation":"NO PARKING"},{"gh6":"tdr3bu","lat":12.9876,"lon":77.73439,"label":"Whitefield","violations":697,"impact_score":60.0,"avg_severity":0.779,"junction_frac":0.0,"main_road_frac":0.02,"top_violation":"WRONG PARKING"},{"gh6":"tdr1w1","lat":12.9281,"lon":77.60964,"label":"BTP140 - Madiwala Check Post","violations":410,"impact_score":59.9,"avg_severity":0.856,"junction_frac":0.551,"main_road_frac":0.559,"top_violation":"PARKING IN A MAIN ROAD"},{"gh6":"tdr1mp","lat":12.91718,"lon":77.57345,"label":"BTP115 - Sahasra Hospital, Jayanagar","violations":545,"impact_score":59.5,"avg_severity":0.654,"junction_frac":0.93,"main_road_frac":0.018,"top_violation":"NO PARKING"},{"gh6":"tdr4j7","lat":13.02725,"lon":77.57888,"label":"Kodigehalli","violations":680,"impact_score":59.5,"avg_severity":0.766,"junction_frac":0.0,"main_road_frac":0.007,"top_violation":"WRONG PARKING"},{"gh6":"tdr4j5","lat":13.02814,"lon":77.57284,"label":"Sadashivanagar","violations":706,"impact_score":59.3,"avg_severity":0.724,"junction_frac":0.0,"main_road_frac":0.02,"top_violation":"WRONG PARKING"},{"gh6":"tdr4h3","lat":13.01742,"lon":77.53164,"label":"Rajajinagar","violations":539,"impact_score":59.2,"avg_severity":0.82,"junction_frac":0.0,"main_road_frac":0.295,"top_violation":"WRONG PARKING"},{"gh6":"tdr1y6","lat":12.97612,"lon":77.62626,"label":"Halasur","violations":539,"impact_score":59.1,"avg_severity":0.798,"junction_frac":0.0,"main_road_frac":0.334,"top_violation":"NO PARKING"},{"gh6":"tdr1zj","lat":12.99319,"lon":77.6615,"label":"Banaswadi","violations":590,"impact_score":58.7,"avg_severity":0.721,"junction_frac":0.0,"main_road_frac":0.283,"top_violation":"NO PARKING"},{"gh6":"tdr1qd","lat":12.89151,"lon":77.63847,"label":"HSR Layout","violations":595,"impact_score":58.5,"avg_severity":0.799,"junction_frac":0.0,"main_road_frac":0.012,"top_violation":"WRONG PARKING"},{"gh6":"tdr1uz","lat":13.00435,"lon":77.55351,"label":"BTP001 - 10th Cross, Dr. Rajkumar Road","violations":427,"impact_score":58.4,"avg_severity":0.768,"junction_frac":0.871,"main_road_frac":0.012,"top_violation":"WRONG PARKING"},{"gh6":"tdr1ts","lat":12.94538,"lon":77.59456,"label":"BTP123 - 10th Cross, Wilson Garden","violations":534,"impact_score":58.4,"avg_severity":0.648,"junction_frac":0.699,"main_road_frac":0.036,"top_violation":"NO PARKING"},{"gh6":"tdr38t","lat":12.95162,"lon":77.71749,"label":"Whitefield","violations":380,"impact_score":58.3,"avg_severity":0.921,"junction_frac":0.0,"main_road_frac":0.671,"top_violation":"PARKING IN A MAIN ROAD"},{"gh6":"tdr1zv","lat":12.99595,"lon":77.6944,"label":"Mahadevapura","violations":523,"impact_score":58.2,"avg_severity":0.778,"junction_frac":0.0,"main_road_frac":0.275,"top_violation":"NO PARKING"},{"gh6":"tdr4hc","lat":13.01579,"lon":77.55544,"label":"Yeshwanthpura","violations":491,"impact_score":58.1,"avg_severity":0.793,"junction_frac":0.0,"main_road_frac":0.354,"top_violation":"NO PARKING"},{"gh6":"tdr4m9","lat":13.05881,"lon":77.59157,"label":"Kodigehalli","violations":594,"impact_score":57.9,"avg_severity":0.753,"junction_frac":0.0,"main_road_frac":0.005,"top_violation":"WRONG PARKING"},{"gh6":"tdr1t5","lat":12.94057,"lon":77.56701,"label":"BTP109 - Dewan Madhava Rao Junction","violations":531,"impact_score":57.8,"avg_severity":0.672,"junction_frac":0.475,"main_road_frac":0.009,"top_violation":"NO PARKING"},{"gh6":"tdr1ez","lat":12.96094,"lon":77.51164,"label":"Jnanabharathi","violations":582,"impact_score":57.8,"avg_severity":0.733,"junction_frac":0.0,"main_road_frac":0.095,"top_violation":"WRONG PARKING"},{"gh6":"tdr1tm","lat":12.94905,"lon":77.57959,"label":"BTP184 - Lalbagh West Gate","violations":424,"impact_score":57.8,"avg_severity":0.695,"junction_frac":1.0,"main_road_frac":0.012,"top_violation":"NO PARKING"},{"gh6":"tdr1qm","lat":12.90681,"lon":77.62864,"label":"Madiwala","violations":440,"impact_score":57.7,"avg_severity":0.849,"junction_frac":0.0,"main_road_frac":0.366,"top_violation":"WRONG PARKING"},{"gh6":"tdr1v1","lat":12.97378,"lon":77.57181,"label":"BTP043 - Upparpet Junction","violations":379,"impact_score":57.5,"avg_severity":0.772,"junction_frac":0.868,"main_road_frac":0.098,"top_violation":"WRONG PARKING"},{"gh6":"tdr1tg","lat":12.93676,"lon":77.60181,"label":"BTP126 - Dairy Circle","violations":325,"impact_score":57.4,"avg_severity":0.78,"junction_frac":0.991,"main_road_frac":0.366,"top_violation":"NO PARKING"},{"gh6":"tdr4zx","lat":13.18349,"lon":77.6798,"label":"Chikkajala","violations":510,"impact_score":57.3,"avg_severity":0.753,"junction_frac":0.0,"main_road_frac":0.214,"top_violation":"NO PARKING"},{"gh6":"tdr1u8","lat":12.96482,"lon":77.54558,"label":"Vijayanagara","violations":624,"impact_score":57.2,"avg_severity":0.663,"junction_frac":0.0,"main_road_frac":0.018,"top_violation":"NO PARKING"},{"gh6":"tdr1wd","lat":12.93245,"lon":77.63161,"label":"Adugodi","violations":657,"impact_score":57.1,"avg_severity":0.62,"junction_frac":0.0,"main_road_frac":0.033,"top_violation":"NO PARKING"},{"gh6":"tdr1ve","lat":12.98163,"lon":77.59314,"label":"BTP052 - CID Carlton House Junction","violations":431,"impact_score":57.1,"avg_severity":0.638,"junction_frac":1.0,"main_road_frac":0.028,"top_violation":"NO PARKING"},{"gh6":"tdr1sz","lat":12.96039,"lon":77.55951,"label":"BTP091 - Sirsi Circle","violations":303,"impact_score":57.1,"avg_severity":0.809,"junction_frac":1.0,"main_road_frac":0.38,"top_violation":"PARKING IN A MAIN ROAD"},{"gh6":"tdr1rs","lat":12.89958,"lon":77.67545,"label":"Bellandur","violations":607,"impact_score":57.0,"avg_severity":0.677,"junction_frac":0.0,"main_road_frac":0.003,"top_violation":"NO PARKING"},{"gh6":"tdr1qe","lat":12.89333,"lon":77.63703,"label":"Hulimavu","violations":517,"impact_score":56.8,"avg_severity":0.779,"junction_frac":0.0,"main_road_frac":0.002,"top_violation":"WRONG PARKING"},{"gh6":"tdr1w2","lat":12.92464,"lon":77.61934,"label":"BTP137 - Madiwala Traffic PS Junction","violations":407,"impact_score":56.7,"avg_severity":0.648,"junction_frac":0.971,"main_road_frac":0.066,"top_violation":"NO PARKING"},{"gh6":"tdr1qc","lat":12.8848,"lon":77.64176,"label":"Hulimavu","violations":486,"impact_score":56.4,"avg_severity":0.799,"junction_frac":0.0,"main_road_frac":0.0,"top_violation":"WRONG PARKING"},{"gh6":"tdr4hu","lat":13.03367,"lon":77.5579,"label":"Yeshwanthpura","violations":346,"impact_score":56.3,"avg_severity":0.886,"junction_frac":0.0,"main_road_frac":0.503,"top_violation":"PARKING IN A MAIN ROAD"},{"gh6":"tdr1xg","lat":12.93683,"lon":77.69287,"label":"HAL Old Airport","violations":450,"impact_score":56.2,"avg_severity":0.744,"junction_frac":0.0,"main_road_frac":0.26,"top_violation":"NO PARKING"},{"gh6":"tdr1tn","lat":12.95722,"lon":77.56945,"label":"BTP214 - 5th Main Chamrajpet  Junction","violations":344,"impact_score":56.2,"avg_severity":0.706,"junction_frac":1.0,"main_road_frac":0.128,"top_violation":"NO PARKING"},{"gh6":"tdr1x2","lat":12.92126,"lon":77.6655,"label":"Bellandur","violations":483,"impact_score":56.0,"avg_severity":0.763,"junction_frac":0.0,"main_road_frac":0.017,"top_violation":"WRONG PARKING"},{"gh6":"tdr1up","lat":13.00668,"lon":77.52679,"label":"Rajajinagar","violations":318,"impact_score":55.9,"avg_severity":0.881,"junction_frac":0.0,"main_road_frac":0.645,"top_violation":"PARKING IN A MAIN ROAD"},{"gh6":"tdr1ey","lat":12.95698,"lon":77.51861,"label":"Byatarayanapura","violations":425,"impact_score":55.8,"avg_severity":0.776,"junction_frac":0.0,"main_road_frac":0.214,"top_violation":"WRONG PARKING"},{"gh6":"tdr1mr","lat":12.91757,"lon":77.57831,"label":"BTP176 - Rajalakshmi Kalyana Mantapa, JP Nagar","violations":337,"impact_score":55.8,"avg_severity":0.709,"junction_frac":1.0,"main_road_frac":0.062,"top_violation":"NO PARKING"},{"gh6":"tdr1t6","lat":12.93176,"lon":77.58385,"label":"BTP219 - Canara Bank Junction","violations":338,"impact_score":55.7,"avg_severity":0.704,"junction_frac":1.0,"main_road_frac":0.033,"top_violation":"NO PARKING"},{"gh6":"tdr1ef","lat":12.93562,"lon":77.51786,"label":"Byatarayanapura","violations":433,"impact_score":55.5,"avg_severity":0.771,"junction_frac":0.0,"main_road_frac":0.129,"top_violation":"WRONG PARKING"},{"gh6":"tdr1zf","lat":12.97928,"lon":77.695,"label":"Mahadevapura","violations":335,"impact_score":55.4,"avg_severity":0.838,"junction_frac":0.0,"main_road_frac":0.507,"top_violation":"PARKING IN A MAIN ROAD"},{"gh6":"tdr38q","lat":12.95664,"lon":77.715,"label":"HAL Old Airport","violations":410,"impact_score":55.4,"avg_severity":0.802,"junction_frac":0.0,"main_road_frac":0.129,"top_violation":"WRONG PARKING"},{"gh6":"tdr1s9","lat":12.92672,"lon":77.55079,"label":"BTP155 - Katriguppe Junction","violations":347,"impact_score":55.2,"avg_severity":0.649,"junction_frac":0.994,"main_road_frac":0.075,"top_violation":"NO PARKING"},{"gh6":"tdr4jx","lat":13.04998,"lon":77.5931,"label":"Kodigehalli","violations":485,"impact_score":55.1,"avg_severity":0.698,"junction_frac":0.0,"main_road_frac":0.025,"top_violation":"NO PARKING"},{"gh6":"tdr1v5","lat":12.98065,"lon":77.57246,"label":"BTP057 - Anand Rao Junction","violations":327,"impact_score":55.0,"avg_severity":0.738,"junction_frac":0.765,"main_road_frac":0.049,"top_violation":"WRONG PARKING"},{"gh6":"tdr1p9","lat":12.84064,"lon":77.67674,"label":"Electronic City","violations":425,"impact_score":54.9,"avg_severity":0.722,"junction_frac":0.0,"main_road_frac":0.193,"top_violation":"NO PARKING"},{"gh6":"tdr1gs","lat":12.98935,"lon":77.50274,"label":"Kamakshipalya","violations":475,"impact_score":54.9,"avg_severity":0.687,"junction_frac":0.0,"main_road_frac":0.051,"top_violation":"NO PARKING"},{"gh6":"tdr1qq","lat":12.91207,"lon":77.62574,"label":"HSR Layout","violations":443,"impact_score":54.8,"avg_severity":0.736,"junction_frac":0.0,"main_road_frac":0.027,"top_violation":"WRONG PARKING"},{"gh6":"tdr1yd","lat":12.97825,"lon":77.63895,"label":"Jeevanbheemanagar","violations":401,"impact_score":54.7,"avg_severity":0.731,"junction_frac":0.0,"main_road_frac":0.232,"top_violation":"NO PARKING"},{"gh6":"tdr1tv","lat":12.94939,"lon":77.59812,"label":"BTP123 - 10th Cross, Wilson Garden","violations":311,"impact_score":54.3,"avg_severity":0.711,"junction_frac":0.839,"main_road_frac":0.01,"top_violation":"WRONG PARKING"},{"gh6":"tdr1vm","lat":12.99629,"lon":77.5844,"label":"BTP032 - Windsor Circle","violations":330,"impact_score":54.2,"avg_severity":0.68,"junction_frac":0.736,"main_road_frac":0.045,"top_violation":"NO PARKING"},{"gh6":"tdr4h6","lat":13.02023,"lon":77.53252,"label":"Rajajinagar","violations":404,"impact_score":54.2,"avg_severity":0.75,"junction_frac":0.0,"main_road_frac":0.074,"top_violation":"WRONG PARKING"},{"gh6":"tdr4mx","lat":13.09328,"lon":77.59419,"label":"Yelahanka","violations":405,"impact_score":54.2,"avg_severity":0.769,"junction_frac":0.0,"main_road_frac":0.0,"top_violation":"WRONG PARKING"},{"gh6":"tdr1my","lat":12.91362,"lon":77.60559,"label":"BTP163 - 16th Main Road, BTM Layout","violations":450,"impact_score":54.0,"avg_severity":0.607,"junction_frac":0.249,"main_road_frac":0.002,"top_violation":"NO PARKING"},{"gh6":"tdr1y9","lat":12.97004,"lon":77.63765,"label":"Jeevanbheemanagar","violations":408,"impact_score":54.0,"avg_severity":0.688,"junction_frac":0.0,"main_road_frac":0.176,"top_violation":"NO PARKING"},{"gh6":"tdr4he","lat":13.02739,"lon":77.5429,"label":"Yeshwanthpura","violations":438,"impact_score":54.0,"avg_severity":0.67,"junction_frac":0.0,"main_road_frac":0.091,"top_violation":"NO PARKING"},{"gh6":"tdr4j6","lat":13.02339,"lon":77.58488,"label":"BTP030 - Mekhri Circle","violations":391,"impact_score":53.8,"avg_severity":0.735,"junction_frac":0.049,"main_road_frac":0.051,"top_violation":"WRONG PARKING"},{"gh6":"tdr4je","lat":13.02662,"lon":77.58643,"label":"R.T. Nagar","violations":424,"impact_score":53.8,"avg_severity":0.705,"junction_frac":0.0,"main_road_frac":0.009,"top_violation":"WRONG PARKING"},{"gh6":"tdr1v9","lat":12.97138,"lon":77.59383,"label":"BTP063 - Siddalingaiah Circle","violations":295,"impact_score":53.8,"avg_severity":0.663,"junction_frac":1.0,"main_road_frac":0.085,"top_violation":"NO PARKING"},{"gh6":"tdr4jd","lat":13.02194,"lon":77.59264,"label":"R.T. Nagar","violations":378,"impact_score":53.5,"avg_severity":0.768,"junction_frac":0.0,"main_road_frac":0.005,"top_violation":"WRONG PARKING"},{"gh6":"tdr45v","lat":13.03994,"lon":77.51853,"label":"Peenya","violations":385,"impact_score":53.5,"avg_severity":0.714,"junction_frac":0.0,"main_road_frac":0.127,"top_violation":"NO PARKING"},{"gh6":"tdr1mx","lat":12.91685,"lon":77.59376,"label":"BTP179 - 9th Block, 28th Main, Jayanagar","violations":223,"impact_score":53.5,"avg_severity":0.811,"junction_frac":1.0,"main_road_frac":0.229,"top_violation":"WRONG PARKING"},{"gh6":"tdr1vq","lat":12.99817,"lon":77.58222,"label":"BTP032 - Windsor Circle","violations":340,"impact_score":53.5,"avg_severity":0.707,"junction_frac":0.371,"main_road_frac":0.053,"top_violation":"NO PARKING"},{"gh6":"tdr1mw","lat":12.91216,"lon":77.58589,"label":"BTP197 - 9th Cross, 24th Main, JP Nagar","violations":246,"impact_score":53.4,"avg_severity":0.751,"junction_frac":0.984,"main_road_frac":0.138,"top_violation":"WRONG PARKING"},{"gh6":"tdr1ut","lat":12.99508,"lon":77.55161,"label":"BTP182 - 19th Main Junction, Rajajinagar","violations":247,"impact_score":53.3,"avg_severity":0.772,"junction_frac":0.992,"main_road_frac":0.004,"top_violation":"WRONG PARKING"},{"gh6":"tdr4ws","lat":13.12174,"lon":77.631,"label":"Chikkajala","violations":303,"impact_score":53.2,"avg_severity":0.787,"junction_frac":0.0,"main_road_frac":0.383,"top_violation":"NO PARKING"},{"gh6":"tdr1rw","lat":12.9129,"lon":77.67974,"label":"Bellandur","violations":402,"impact_score":53.2,"avg_severity":0.701,"junction_frac":0.0,"main_road_frac":0.007,"top_violation":"NO PARKING"},{"gh6":"tdr1mq","lat":12.91089,"lon":77.57914,"label":"BTP196 - Sarakki Main Road","violations":240,"impact_score":53.1,"avg_severity":0.783,"junction_frac":1.0,"main_road_frac":0.004,"top_violation":"WRONG PARKING"},{"gh6":"tdr1mn","lat":12.91133,"lon":77.57308,"label":"BTP117 - 9th Cross, Kanakapura Road","violations":244,"impact_score":53.1,"avg_severity":0.759,"junction_frac":1.0,"main_road_frac":0.033,"top_violation":"WRONG PARKING"},{"gh6":"tdr1wx","lat":12.96102,"lon":77.63691,"label":"BTP145 - Sri Hatti Maramma Circle, Domluru","violations":295,"impact_score":53.0,"avg_severity":0.623,"junction_frac":1.0,"main_road_frac":0.014,"top_violation":"NO PARKING"},{"gh6":"tdr1tp","lat":12.96049,"lon":77.57085,"label":"BTP212 - Minto Junction","violations":234,"impact_score":52.9,"avg_severity":0.734,"junction_frac":1.0,"main_road_frac":0.192,"top_violation":"NO PARKING"},{"gh6":"tdr1vb","lat":12.96716,"lon":77.60131,"label":"BTP099 - Cash Pharmacy, Residency Road","violations":268,"impact_score":52.9,"avg_severity":0.697,"junction_frac":0.817,"main_road_frac":0.146,"top_violation":"NO PARKING"},{"gh6":"tdr1t2","lat":12.92247,"lon":77.58074,"label":"BTP190 - 36th Cross, 4th Main, Jayanagar","violations":276,"impact_score":52.9,"avg_severity":0.662,"junction_frac":0.982,"main_road_frac":0.033,"top_violation":"NO PARKING"},{"gh6":"tdr32j","lat":12.90644,"lon":77.6978,"label":"Bellandur","violations":351,"impact_score":52.7,"avg_severity":0.77,"junction_frac":0.0,"main_road_frac":0.0,"top_violation":"WRONG PARKING"},{"gh6":"tdr1pp","lat":12.87073,"lon":77.65438,"label":"Electronic City","violations":332,"impact_score":52.5,"avg_severity":0.775,"junction_frac":0.0,"main_road_frac":0.066,"top_violation":"WRONG PARKING"},{"gh6":"tdr1zq","lat":12.99719,"lon":77.66999,"label":"Banaswadi","violations":254,"impact_score":52.4,"avg_severity":0.86,"junction_frac":0.0,"main_road_frac":0.402,"top_violation":"WRONG PARKING"},{"gh6":"tdr4hf","lat":13.01936,"lon":77.55735,"label":"Yeshwanthpura","violations":316,"impact_score":52.2,"avg_severity":0.772,"junction_frac":0.0,"main_road_frac":0.098,"top_violation":"WRONG PARKING"},{"gh6":"tdr5p9","lat":13.19037,"lon":77.68063,"label":"Devanahalli Airport","violations":339,"impact_score":52.2,"avg_severity":0.761,"junction_frac":0.0,"main_road_frac":0.003,"top_violation":"WRONG PARKING"},{"gh6":"tdr1qb","lat":12.87897,"lon":77.64583,"label":"Hulimavu","violations":320,"impact_score":52.2,"avg_severity":0.801,"junction_frac":0.0,"main_road_frac":0.003,"top_violation":"WRONG PARKING"},{"gh6":"tdr1tc","lat":12.93085,"lon":77.60616,"label":"BTP127 - Sagar Hospital, Jayanagar","violations":300,"impact_score":52.1,"avg_severity":0.699,"junction_frac":0.24,"main_road_frac":0.183,"top_violation":"NO PARKING"},{"gh6":"tdr4nk","lat":13.03438,"lon":77.62446,"label":"K.G. Halli","violations":414,"impact_score":52.1,"avg_severity":0.613,"junction_frac":0.0,"main_road_frac":0.0,"top_violation":"NO PARKING"},{"gh6":"tdr1w0","lat":12.92434,"lon":77.61464,"label":"BTP137 - Madiwala Traffic PS Junction","violations":227,"impact_score":52.0,"avg_severity":0.756,"junction_frac":0.683,"main_road_frac":0.242,"top_violation":"NO PARKING"},{"gh6":"tdr1w7","lat":12.93817,"lon":77.62512,"label":"Adugodi","violations":323,"impact_score":51.7,"avg_severity":0.736,"junction_frac":0.0,"main_road_frac":0.062,"top_violation":"WRONG PARKING"},{"gh6":"tdr38p","lat":12.95967,"lon":77.70153,"label":"HAL Old Airport","violations":374,"impact_score":51.7,"avg_severity":0.637,"junction_frac":0.0,"main_road_frac":0.051,"top_violation":"NO PARKING"},{"gh6":"tdr4h7","lat":13.02891,"lon":77.53945,"label":"Yeshwanthpura","violations":275,"impact_score":51.6,"avg_severity":0.779,"junction_frac":0.0,"main_road_frac":0.269,"top_violation":"NO PARKING"},{"gh6":"tdr1yh","lat":12.98924,"lon":77.61215,"label":"Pulikeshinagar(F.Town)","violations":371,"impact_score":51.5,"avg_severity":0.632,"junction_frac":0.0,"main_road_frac":0.043,"top_violation":"NO PARKING"},{"gh6":"tdr0zv","lat":12.81855,"lon":77.68909,"label":"Electronic City","violations":231,"impact_score":51.3,"avg_severity":0.851,"junction_frac":0.0,"main_road_frac":0.39,"top_violation":"WRONG PARKING"},{"gh6":"tdr1tf","lat":12.931,"lon":77.60684,"label":"BTP126 - Dairy Circle","violations":257,"impact_score":51.2,"avg_severity":0.69,"junction_frac":0.467,"main_road_frac":0.156,"top_violation":"NO PARKING"},{"gh6":"tdr1rr","lat":12.91746,"lon":77.67237,"label":"Bellandur","violations":275,"impact_score":50.9,"avg_severity":0.762,"junction_frac":0.0,"main_road_frac":0.164,"top_violation":"WRONG PARKING"},{"gh6":"tdr1sh","lat":12.94458,"lon":77.52696,"label":"BTP098 - Nayandahalli Junction","violations":173,"impact_score":50.8,"avg_severity":0.795,"junction_frac":0.983,"main_road_frac":0.277,"top_violation":"WRONG PARKING"},{"gh6":"tdr3bx","lat":13.00349,"lon":77.72347,"label":"K.R. Pura","violations":153,"impact_score":50.8,"avg_severity":0.987,"junction_frac":0.0,"main_road_frac":0.967,"top_violation":"PARKING IN A MAIN ROAD"},{"gh6":"tdr1sj","lat":12.95047,"lon":77.52213,"label":"BTP098 - Nayandahalli Junction","violations":174,"impact_score":50.5,"avg_severity":0.93,"junction_frac":0.017,"main_road_frac":0.678,"top_violation":"PARKING IN A MAIN ROAD"},{"gh6":"tdr1um","lat":12.9919,"lon":77.53848,"label":"BTP207 - 8th Main Road Basaveshwara Nagar","violations":183,"impact_score":50.5,"avg_severity":0.787,"junction_frac":0.984,"main_road_frac":0.055,"top_violation":"WRONG PARKING"},{"gh6":"tdr45x","lat":13.04719,"lon":77.50097,"label":"Peenya","violations":284,"impact_score":50.5,"avg_severity":0.744,"junction_frac":0.0,"main_road_frac":0.06,"top_violation":"WRONG PARKING"},{"gh6":"tdr1mt","lat":12.90622,"lon":77.59026,"label":"BTP221 - 15th Cross, 24th Main, JP Nagar","violations":187,"impact_score":50.2,"avg_severity":0.72,"junction_frac":0.989,"main_road_frac":0.139,"top_violation":"NO PARKING"},{"gh6":"tdr5pb","lat":13.18403,"lon":77.68756,"label":"Chikkajala","violations":266,"impact_score":50.2,"avg_severity":0.793,"junction_frac":0.0,"main_road_frac":0.004,"top_violation":"WRONG PARKING"},{"gh6":"tdr4h0","lat":13.0089,"lon":77.52684,"label":"Rajajinagar","violations":228,"impact_score":50.1,"avg_severity":0.775,"junction_frac":0.0,"main_road_frac":0.377,"top_violation":"NO PARKING"},{"gh6":"tdr1kw","lat":12.91,"lon":77.55043,"label":"K.S. Layout","violations":161,"impact_score":50.0,"avg_severity":0.933,"junction_frac":0.0,"main_road_frac":0.764,"top_violation":"PARKING IN A MAIN ROAD"},{"gh6":"tdr1mz","lat":12.91702,"lon":77.59693,"label":"BTP202 - East End Main Road, Jayanagar","violations":147,"impact_score":50.0,"avg_severity":0.84,"junction_frac":0.939,"main_road_frac":0.408,"top_violation":"PARKING IN A MAIN ROAD"},{"gh6":"tdr3b2","lat":12.96726,"lon":77.71619,"label":"HAL Old Airport","violations":255,"impact_score":49.9,"avg_severity":0.801,"junction_frac":0.0,"main_road_frac":0.02,"top_violation":"WRONG PARKING"},{"gh6":"tdr1kf","lat":12.88837,"lon":77.56248,"label":"Thalagattapura","violations":327,"impact_score":49.8,"avg_severity":0.623,"junction_frac":0.0,"main_road_frac":0.003,"top_violation":"NO PARKING"},{"gh6":"tdr1zy","lat":12.9986,"lon":77.68896,"label":"Mahadevapura","violations":235,"impact_score":49.8,"avg_severity":0.794,"junction_frac":0.0,"main_road_frac":0.183,"top_violation":"WRONG PARKING"},{"gh6":"tdr1yq","lat":12.99938,"lon":77.6246,"label":"Pulikeshinagar(F.Town)","violations":308,"impact_score":49.6,"avg_severity":0.645,"junction_frac":0.0,"main_road_frac":0.01,"top_violation":"NO PARKING"},{"gh6":"tdr1pn","lat":12.87016,"lon":77.6537,"label":"Electronic City","violations":246,"impact_score":49.6,"avg_severity":0.774,"junction_frac":0.0,"main_road_frac":0.089,"top_violation":"WRONG PARKING"},{"gh6":"tdr3b6","lat":12.97786,"lon":77.71077,"label":"Mahadevapura","violations":190,"impact_score":49.2,"avg_severity":0.865,"junction_frac":0.0,"main_road_frac":0.342,"top_violation":"WRONG PARKING"},{"gh6":"tdr45w","lat":13.04543,"lon":77.5071,"label":"Peenya","violations":244,"impact_score":49.2,"avg_severity":0.775,"junction_frac":0.0,"main_road_frac":0.025,"top_violation":"WRONG PARKING"},{"gh6":"tdr4nd","lat":13.02243,"lon":77.63818,"label":"Banaswadi","violations":253,"impact_score":49.2,"avg_severity":0.757,"junction_frac":0.0,"main_road_frac":0.004,"top_violation":"WRONG PARKING"},{"gh6":"tdr45r","lat":13.0496,"lon":77.49484,"label":"Chikkabanavara","violations":178,"impact_score":49.1,"avg_severity":0.878,"junction_frac":0.0,"main_road_frac":0.433,"top_violation":"WRONG PARKING"},{"gh6":"tdr1w3","lat":12.92579,"lon":77.61949,"label":"BTP137 - Madiwala Traffic PS Junction","violations":277,"impact_score":49.0,"avg_severity":0.633,"junction_frac":0.137,"main_road_frac":0.007,"top_violation":"NO PARKING"},{"gh6":"tdr384","lat":12.93215,"lon":77.69613,"label":"HAL Old Airport","violations":164,"impact_score":48.9,"avg_severity":0.896,"junction_frac":0.0,"main_road_frac":0.543,"top_violation":"PARKING IN A MAIN ROAD"},{"gh6":"tdr1kt","lat":12.90673,"lon":77.54583,"label":"K.S. Layout","violations":202,"impact_score":48.9,"avg_severity":0.795,"junction_frac":0.0,"main_road_frac":0.322,"top_violation":"NO PARKING"},{"gh6":"tdr1s5","lat":12.94051,"lon":77.52456,"label":"Byatarayanapura","violations":227,"impact_score":48.9,"avg_severity":0.794,"junction_frac":0.0,"main_road_frac":0.066,"top_violation":"WRONG PARKING"},{"gh6":"tdr1td","lat":12.93158,"lon":77.58608,"label":"BTP219 - Canara Bank Junction","violations":198,"impact_score":48.9,"avg_severity":0.678,"junction_frac":0.758,"main_road_frac":0.01,"top_violation":"NO PARKING"},{"gh6":"tdr4hp","lat":13.05045,"lon":77.52553,"label":"Jalahalli","violations":269,"impact_score":48.9,"avg_severity":0.694,"junction_frac":0.0,"main_road_frac":0.0,"top_violation":"NO PARKING"},{"gh6":"tdr1qn","lat":12.91382,"lon":77.60861,"label":"BTP163 - 16th Main Road, BTM Layout","violations":203,"impact_score":48.5,"avg_severity":0.61,"junction_frac":0.901,"main_road_frac":0.0,"top_violation":"NO PARKING"},{"gh6":"tdr4m8","lat":13.05397,"lon":77.59286,"label":"Kodigehalli","violations":243,"impact_score":48.4,"avg_severity":0.731,"junction_frac":0.0,"main_road_frac":0.0,"top_violation":"WRONG PARKING"},{"gh6":"tdr1tt","lat":12.95151,"lon":77.59079,"label":"BTP121 - KH Circle","violations":183,"impact_score":48.4,"avg_severity":0.642,"junction_frac":1.0,"main_road_frac":0.011,"top_violation":"NO PARKING"},{"gh6":"tdr3b4","lat":12.97885,"lon":77.69569,"label":"Mahadevapura","violations":203,"impact_score":48.1,"avg_severity":0.753,"junction_frac":0.0,"main_road_frac":0.261,"top_violation":"NO PARKING"},{"gh6":"tdr4hx","lat":13.04898,"lon":77.54385,"label":"Jalahalli","violations":169,"impact_score":48.1,"avg_severity":0.845,"junction_frac":0.0,"main_road_frac":0.42,"top_violation":"PARKING IN A MAIN ROAD"},{"gh6":"tdr1u6","lat":12.97623,"lon":77.534,"label":"BTP214 - 5th Main Chamrajpet  Junction","violations":151,"impact_score":48.0,"avg_severity":0.75,"junction_frac":1.0,"main_road_frac":0.026,"top_violation":"WRONG PARKING"},{"gh6":"tdr1vr","lat":13.00666,"lon":77.57903,"label":"Sadashivanagar","violations":220,"impact_score":48.0,"avg_severity":0.701,"junction_frac":0.0,"main_road_frac":0.205,"top_violation":"NO PARKING"},{"gh6":"tdr1mb","lat":12.87629,"lon":77.59655,"label":"Hulimavu","violations":232,"impact_score":48.0,"avg_severity":0.733,"junction_frac":0.0,"main_road_frac":0.004,"top_violation":"WRONG PARKING"},{"gh6":"tdr1yf","lat":12.97845,"lon":77.64175,"label":"Jeevanbheemanagar","violations":239,"impact_score":47.8,"avg_severity":0.671,"junction_frac":0.0,"main_road_frac":0.075,"top_violation":"NO PARKING"},{"gh6":"tdr38x","lat":12.96359,"lon":77.71766,"label":"HAL Old Airport","violations":210,"impact_score":47.8,"avg_severity":0.796,"junction_frac":0.0,"main_road_frac":0.0,"top_violation":"WRONG PARKING"},{"gh6":"tdr1m8","lat":12.87647,"lon":77.59545,"label":"Hulimavu","violations":254,"impact_score":47.7,"avg_severity":0.652,"junction_frac":0.0,"main_road_frac":0.0,"top_violation":"NO PARKING"},{"gh6":"tdr1nz","lat":12.87548,"lon":77.64816,"label":"Hulimavu","violations":207,"impact_score":47.7,"avg_severity":0.798,"junction_frac":0.0,"main_road_frac":0.0,"top_violation":"WRONG PARKING"},{"gh6":"tdr1xp","lat":12.95933,"lon":77.65608,"label":"Jeevanbheemanagar","violations":172,"impact_score":47.3,"avg_severity":0.792,"junction_frac":0.0,"main_road_frac":0.337,"top_violation":"NO PARKING"},{"gh6":"tdr4wh","lat":13.12138,"lon":77.61147,"label":"Yelahanka","violations":197,"impact_score":47.3,"avg_severity":0.799,"junction_frac":0.0,"main_road_frac":0.015,"top_violation":"WRONG PARKING"},{"gh6":"tdr1qy","lat":12.91174,"lon":77.64457,"label":"HSR Layout","violations":226,"impact_score":46.8,"avg_severity":0.668,"junction_frac":0.0,"main_road_frac":0.0,"top_violation":"NO PARKING"},{"gh6":"tdr1vx","lat":13.00536,"lon":77.59351,"label":"R.T. Nagar","violations":210,"impact_score":46.8,"avg_severity":0.706,"junction_frac":0.0,"main_road_frac":0.048,"top_violation":"NO PARKING"},{"gh6":"tdr1s6","lat":12.93495,"lon":77.53649,"label":"Banashankari","violations":248,"impact_score":46.8,"avg_severity":0.61,"junction_frac":0.0,"main_road_frac":0.0,"top_violation":"NO PARKING"},{"gh6":"tdr1yg","lat":12.98173,"lon":77.64078,"label":"Jeevanbheemanagar","violations":152,"impact_score":46.7,"avg_severity":0.834,"junction_frac":0.0,"main_road_frac":0.375,"top_violation":"WRONG PARKING"},{"gh6":"tdr4h9","lat":13.01608,"lon":77.54957,"label":"Rajajinagar","violations":189,"impact_score":46.7,"avg_severity":0.779,"junction_frac":0.0,"main_road_frac":0.032,"top_violation":"WRONG PARKING"},{"gh6":"tdr3c5","lat":12.98549,"lon":77.74582,"label":"Whitefield","violations":105,"impact_score":46.5,"avg_severity":0.968,"junction_frac":0.0,"main_road_frac":0.895,"top_violation":"PARKING IN A MAIN ROAD"},{"gh6":"tdr1xr","lat":12.95887,"lon":77.66803,"label":"HAL Old Airport","violations":190,"impact_score":46.5,"avg_severity":0.765,"junction_frac":0.0,"main_road_frac":0.032,"top_violation":"WRONG PARKING"},{"gh6":"tdr1t8","lat":12.92294,"lon":77.58591,"label":"BTP226 - 33rd Cross, 11th Main, Jayanagar","violations":107,"impact_score":46.2,"avg_severity":0.828,"junction_frac":0.804,"main_road_frac":0.43,"top_violation":"PARKING IN A MAIN ROAD"},{"gh6":"tdr4nm","lat":13.03642,"lon":77.625,"label":"K.G. Halli","violations":219,"impact_score":45.8,"avg_severity":0.623,"junction_frac":0.0,"main_road_frac":0.018,"top_violation":"NO PARKING"},{"gh6":"tdr1tu","lat":12.94474,"lon":77.59715,"label":"BTP123 - 10th Cross, Wilson Garden","violations":133,"impact_score":45.8,"avg_severity":0.683,"junction_frac":1.0,"main_road_frac":0.023,"top_violation":"NO PARKING"},{"gh6":"tdr32e","lat":12.89666,"lon":77.72001,"label":"Whitefield","violations":174,"impact_score":45.6,"avg_severity":0.76,"junction_frac":0.0,"main_road_frac":0.04,"top_violation":"WRONG PARKING"},{"gh6":"tdr1w9","lat":12.92941,"lon":77.63332,"label":"Adugodi","violations":183,"impact_score":45.4,"avg_severity":0.685,"junction_frac":0.0,"main_road_frac":0.109,"top_violation":"NO PARKING"},{"gh6":"tdr38z","lat":12.96354,"lon":77.73302,"label":"Whitefield","violations":130,"impact_score":45.2,"avg_severity":0.816,"junction_frac":0.0,"main_road_frac":0.438,"top_violation":"PARKING IN A MAIN ROAD"},{"gh6":"tdr1rp","lat":12.91683,"lon":77.65171,"label":"HSR Layout","violations":177,"impact_score":45.0,"avg_severity":0.719,"junction_frac":0.0,"main_road_frac":0.0,"top_violation":"WRONG PARKING"},{"gh6":"tdr1w5","lat":12.93758,"lon":77.61068,"label":"BTP133 - Adugodi Junction","violations":131,"impact_score":44.9,"avg_severity":0.698,"junction_frac":0.679,"main_road_frac":0.069,"top_violation":"NO PARKING"},{"gh6":"tdr1mg","lat":12.89502,"lon":77.5992,"label":"J.P. Nagar","violations":201,"impact_score":44.9,"avg_severity":0.614,"junction_frac":0.0,"main_road_frac":0.03,"top_violation":"NO PARKING"},{"gh6":"tdr1qf","lat":12.88745,"lon":77.64092,"label":"Hulimavu","violations":156,"impact_score":44.8,"avg_severity":0.794,"junction_frac":0.0,"main_road_frac":0.013,"top_violation":"WRONG PARKING"},{"gh6":"tdr1tj","lat":12.94934,"lon":77.57224,"label":"BTP107 - National College Junction","violations":124,"impact_score":44.5,"avg_severity":0.645,"junction_frac":0.992,"main_road_frac":0.024,"top_violation":"NO PARKING"},{"gh6":"tdr4hz","lat":13.05085,"lon":77.55281,"label":"Jalahalli","violations":154,"impact_score":44.3,"avg_severity":0.716,"junction_frac":0.0,"main_road_frac":0.149,"top_violation":"NO PARKING"},{"gh6":"tdr4j2","lat":13.00982,"lon":77.58321,"label":"BTP030 - Mekhri Circle","violations":116,"impact_score":44.2,"avg_severity":0.75,"junction_frac":0.466,"main_road_frac":0.224,"top_violation":"NO PARKING"},{"gh6":"tdr45y","lat":13.04179,"lon":77.51448,"label":"Peenya","violations":157,"impact_score":44.1,"avg_severity":0.715,"junction_frac":0.0,"main_road_frac":0.076,"top_violation":"NO PARKING"},{"gh6":"tdr4t8","lat":13.09967,"lon":77.5887,"label":"Yelahanka","violations":185,"impact_score":44.0,"avg_severity":0.62,"junction_frac":0.0,"main_road_frac":0.011,"top_violation":"NO PARKING"},{"gh6":"tdr1gu","lat":12.98694,"lon":77.51918,"label":"Kamakshipalya","violations":178,"impact_score":43.9,"avg_severity":0.638,"junction_frac":0.0,"main_road_frac":0.011,"top_violation":"NO PARKING"},{"gh6":"tdr4t2","lat":13.09909,"lon":77.57732,"label":"Yelahanka","violations":171,"impact_score":43.9,"avg_severity":0.664,"junction_frac":0.0,"main_road_frac":0.0,"top_violation":"NO PARKING"},{"gh6":"tdr3b0","lat":12.96803,"lon":77.70156,"label":"HAL Old Airport","violations":108,"impact_score":43.7,"avg_severity":0.834,"junction_frac":0.0,"main_road_frac":0.481,"top_violation":"PARKING IN A MAIN ROAD"},{"gh6":"tdr4m3","lat":13.0598,"lon":77.57667,"label":"Kodigehalli","violations":141,"impact_score":43.6,"avg_severity":0.788,"junction_frac":0.0,"main_road_frac":0.0,"top_violation":"WRONG PARKING"},{"gh6":"tdr3cr","lat":13.00482,"lon":77.75709,"label":"Mahadevapura","violations":156,"impact_score":43.6,"avg_severity":0.695,"junction_frac":0.0,"main_road_frac":0.038,"top_violation":"NO PARKING"},{"gh6":"tdr1qr","lat":12.9177,"lon":77.62218,"label":"BTP137 - Madiwala Traffic PS Junction","violations":109,"impact_score":43.5,"avg_severity":0.738,"junction_frac":0.56,"main_road_frac":0.165,"top_violation":"NO PARKING"},{"gh6":"tdr1xq","lat":12.95825,"lon":77.66846,"label":"HAL Old Airport","violations":143,"impact_score":43.4,"avg_severity":0.758,"junction_frac":0.0,"main_road_frac":0.007,"top_violation":"WRONG PARKING"},{"gh6":"tdr1un","lat":13.00022,"lon":77.52543,"label":"Rajajinagar","violations":110,"impact_score":43.4,"avg_severity":0.802,"junction_frac":0.0,"main_road_frac":0.473,"top_violation":"PARKING IN A MAIN ROAD"},{"gh6":"tdr1pk","lat":12.8554,"lon":77.66453,"label":"Electronic City","violations":90,"impact_score":43.3,"avg_severity":0.892,"junction_frac":0.0,"main_road_frac":0.689,"top_violation":"PARKING IN A MAIN ROAD"},{"gh6":"tdr1qx","lat":12.91621,"lon":77.63807,"label":"HSR Layout","violations":171,"impact_score":43.3,"avg_severity":0.627,"junction_frac":0.0,"main_road_frac":0.006,"top_violation":"NO PARKING"},{"gh6":"tdr4qe","lat":13.07197,"lon":77.63376,"label":"Hennuru","violations":113,"impact_score":43.2,"avg_severity":0.786,"junction_frac":0.0,"main_road_frac":0.389,"top_violation":"NO PARKING"},{"gh6":"tdr3c0","lat":12.96712,"lon":77.74951,"label":"Whitefield","violations":88,"impact_score":43.2,"avg_severity":0.9,"junction_frac":0.0,"main_road_frac":0.682,"top_violation":"PARKING IN A MAIN ROAD"},{"gh6":"tdr1g9","lat":12.97165,"lon":77.5076,"label":"Jnanabharathi","violations":128,"impact_score":43.2,"avg_severity":0.741,"junction_frac":0.0,"main_road_frac":0.242,"top_violation":"NO PARKING"},{"gh6":"tdr1w6","lat":12.93372,"lon":77.62301,"label":"Adugodi","violations":153,"impact_score":43.1,"avg_severity":0.688,"junction_frac":0.0,"main_road_frac":0.013,"top_violation":"NO PARKING"},{"gh6":"tdr61q","lat":13.0459,"lon":77.75047,"label":"K.R. Pura","violations":140,"impact_score":43.0,"avg_severity":0.726,"junction_frac":0.0,"main_road_frac":0.064,"top_violation":"NO PARKING"},{"gh6":"tdr1x8","lat":12.9246,"lon":77.67548,"label":"Bellandur","violations":134,"impact_score":43.0,"avg_severity":0.754,"junction_frac":0.0,"main_road_frac":0.075,"top_violation":"WRONG PARKING"},{"gh6":"tdr39h","lat":12.94249,"lon":77.74723,"label":"Whitefield","violations":102,"impact_score":42.7,"avg_severity":0.856,"junction_frac":0.0,"main_road_frac":0.333,"top_violation":"WRONG PARKING"},{"gh6":"tdr1vv","lat":12.99301,"lon":77.60483,"label":"Pulikeshinagar(F.Town)","violations":132,"impact_score":42.7,"avg_severity":0.723,"junction_frac":0.0,"main_road_frac":0.121,"top_violation":"NO PARKING"},{"gh6":"tdr1ye","lat":12.98146,"lon":77.63071,"label":"Halasur","violations":92,"impact_score":42.4,"avg_severity":0.851,"junction_frac":0.0,"main_road_frac":0.522,"top_violation":"PARKING IN A MAIN ROAD"},{"gh6":"tdr1w8","lat":12.92506,"lon":77.63395,"label":"Adugodi","violations":145,"impact_score":42.4,"avg_severity":0.652,"junction_frac":0.0,"main_road_frac":0.076,"top_violation":"NO PARKING"},{"gh6":"tdr4j9","lat":13.01692,"lon":77.59167,"label":"R.T. Nagar","violations":126,"impact_score":42.4,"avg_severity":0.778,"junction_frac":0.0,"main_road_frac":0.0,"top_violation":"WRONG PARKING"},{"gh6":"tdr4k8","lat":13.05684,"lon":77.54702,"label":"Jalahalli","violations":148,"impact_score":42.4,"avg_severity":0.658,"junction_frac":0.0,"main_road_frac":0.027,"top_violation":"NO PARKING"},{"gh6":"tdr38y","lat":12.95635,"lon":77.73213,"label":"Whitefield","violations":113,"impact_score":42.4,"avg_severity":0.802,"junction_frac":0.0,"main_road_frac":0.168,"top_violation":"WRONG PARKING"},{"gh6":"tdr1km","lat":12.90773,"lon":77.53292,"label":"K.S. Layout","violations":76,"impact_score":42.4,"avg_severity":0.934,"junction_frac":0.0,"main_road_frac":0.763,"top_violation":"PARKING IN A MAIN ROAD"},{"gh6":"tdr1ms","lat":12.90115,"lon":77.58591,"label":"BTP221 - 15th Cross, 24th Main, JP Nagar","violations":133,"impact_score":42.3,"avg_severity":0.654,"junction_frac":0.195,"main_road_frac":0.045,"top_violation":"NO PARKING"},{"gh6":"tdr638","lat":13.05455,"lon":77.76277,"label":"K.R. Pura","violations":108,"impact_score":42.2,"avg_severity":0.8,"junction_frac":0.0,"main_road_frac":0.231,"top_violation":"WRONG PARKING"},{"gh6":"tdr4jp","lat":13.04743,"lon":77.57251,"label":"Kodigehalli","violations":129,"impact_score":42.2,"avg_severity":0.744,"junction_frac":0.0,"main_road_frac":0.008,"top_violation":"WRONG PARKING"},{"gh6":"tdr1mj","lat":12.90653,"lon":77.57331,"label":"BTP159 - JP Nagar Metro, ORR","violations":99,"impact_score":42.2,"avg_severity":0.64,"junction_frac":0.99,"main_road_frac":0.061,"top_violation":"NO PARKING"},{"gh6":"tdr4jm","lat":13.03697,"lon":77.57488,"label":"Kodigehalli","violations":118,"impact_score":42.0,"avg_severity":0.798,"junction_frac":0.0,"main_road_frac":0.008,"top_violation":"WRONG PARKING"},{"gh6":"tdr1sy","lat":12.95796,"lon":77.55412,"label":"BTP093 - Toll Gate, Mysore Road","violations":64,"impact_score":41.9,"avg_severity":0.867,"junction_frac":0.953,"main_road_frac":0.422,"top_violation":"PARKING IN A MAIN ROAD"},{"gh6":"tdr1p5","lat":12.85096,"lon":77.65744,"label":"Electronic City","violations":117,"impact_score":41.9,"avg_severity":0.8,"junction_frac":0.0,"main_road_frac":0.0,"top_violation":"WRONG PARKING"},{"gh6":"tdr1wy","lat":12.95739,"lon":77.64487,"label":"BTP146 - Domlur Water Tank","violations":150,"impact_score":41.7,"avg_severity":0.607,"junction_frac":0.027,"main_road_frac":0.0,"top_violation":"NO PARKING"},{"gh6":"tdr38w","lat":12.95574,"lon":77.71852,"label":"Whitefield","violations":104,"impact_score":41.5,"avg_severity":0.811,"junction_frac":0.0,"main_road_frac":0.144,"top_violation":"WRONG PARKING"},{"gh6":"tdr1qp","lat":12.91557,"lon":77.6129,"label":"BTP164 - 29th Main Road, BTM Layout","violations":81,"impact_score":41.4,"avg_severity":0.734,"junction_frac":1.0,"main_road_frac":0.0,"top_violation":"WRONG PARKING"},{"gh6":"tdr3bp","lat":13.00765,"lon":77.69612,"label":"K.R. Pura","violations":88,"impact_score":41.4,"avg_severity":0.85,"junction_frac":0.0,"main_road_frac":0.386,"top_violation":"WRONG PARKING"},{"gh6":"tdr1tk","lat":12.94408,"lon":77.58,"label":"BTP185 - RV Teachers College","violations":89,"impact_score":41.4,"avg_severity":0.69,"junction_frac":0.82,"main_road_frac":0.079,"top_violation":"NO PARKING"},{"gh6":"tdr1z0","lat":12.96688,"lon":77.65809,"label":"Jeevanbheemanagar","violations":112,"impact_score":41.0,"avg_severity":0.76,"junction_frac":0.0,"main_road_frac":0.018,"top_violation":"WRONG PARKING"},{"gh6":"tdr1vy","lat":12.99951,"lon":77.59949,"label":"R.T. Nagar","violations":108,"impact_score":41.0,"avg_severity":0.789,"junction_frac":0.0,"main_road_frac":0.009,"top_violation":"WRONG PARKING"},{"gh6":"tdr3b7","lat":12.98414,"lon":77.70834,"label":"Mahadevapura","violations":95,"impact_score":41.0,"avg_severity":0.813,"junction_frac":0.0,"main_road_frac":0.221,"top_violation":"WRONG PARKING"},{"gh6":"tdr4y0","lat":13.14414,"lon":77.61784,"label":"Chikkajala","violations":130,"impact_score":41.0,"avg_severity":0.652,"junction_frac":0.0,"main_road_frac":0.023,"top_violation":"NO PARKING"},{"gh6":"tdr395","lat":12.93818,"lon":77.74684,"label":"Whitefield","violations":84,"impact_score":40.9,"avg_severity":0.836,"junction_frac":0.0,"main_road_frac":0.429,"top_violation":"PARKING IN A MAIN ROAD"},{"gh6":"tdr1m9","lat":12.88182,"lon":77.59589,"label":"J.P. Nagar","violations":110,"impact_score":40.9,"avg_severity":0.769,"junction_frac":0.0,"main_road_frac":0.0,"top_violation":"WRONG PARKING"},{"gh6":"tdr1qs","lat":12.90039,"lon":77.63392,"label":"HSR Layout","violations":105,"impact_score":40.8,"avg_severity":0.795,"junction_frac":0.0,"main_road_frac":0.01,"top_violation":"WRONG PARKING"},{"gh6":"tdr1vw","lat":13.00134,"lon":77.59544,"label":"BTP032 - Windsor Circle","violations":105,"impact_score":40.7,"avg_severity":0.777,"junction_frac":0.019,"main_road_frac":0.029,"top_violation":"WRONG PARKING"},{"gh6":"tdr1yk","lat":12.98699,"lon":77.6194,"label":"Pulikeshinagar(F.Town)","violations":116,"impact_score":40.6,"avg_severity":0.688,"junction_frac":0.0,"main_road_frac":0.069,"top_violation":"NO PARKING"},{"gh6":"tdr4qt","lat":13.08354,"lon":77.63714,"label":"Hennuru","violations":87,"impact_score":40.6,"avg_severity":0.83,"junction_frac":0.0,"main_road_frac":0.287,"top_violation":"WRONG PARKING"},{"gh6":"tdr1yr","lat":13.00699,"lon":77.6215,"label":"Pulikeshinagar(F.Town)","violations":121,"impact_score":40.5,"avg_severity":0.674,"junction_frac":0.0,"main_road_frac":0.0,"top_violation":"NO PARKING"},{"gh6":"tdr1sk","lat":12.94662,"lon":77.53203,"label":"BTP098 - Nayandahalli Junction","violations":55,"impact_score":40.4,"avg_severity":0.905,"junction_frac":0.6,"main_road_frac":0.636,"top_violation":"PARKING IN A MAIN ROAD"},{"gh6":"tdr4jh","lat":13.03246,"lon":77.56796,"label":"Sadashivanagar","violations":103,"impact_score":40.4,"avg_severity":0.748,"junction_frac":0.0,"main_road_frac":0.107,"top_violation":"WRONG PARKING"},{"gh6":"tdr1sg","lat":12.93845,"lon":77.55789,"label":"Basavanagudi","violations":101,"impact_score":40.4,"avg_severity":0.763,"junction_frac":0.0,"main_road_frac":0.099,"top_violation":"WRONG PARKING"},{"gh6":"tdr17n","lat":12.91182,"lon":77.48124,"label":"Kengeri","violations":103,"impact_score":40.3,"avg_severity":0.699,"junction_frac":0.0,"main_road_frac":0.233,"top_violation":"NO PARKING"},{"gh6":"tdr478","lat":13.05501,"lon":77.50761,"label":"Chikkabanavara","violations":124,"impact_score":40.3,"avg_severity":0.647,"junction_frac":0.0,"main_road_frac":0.0,"top_violation":"NO PARKING"},{"gh6":"tdr4jw","lat":13.04242,"lon":77.59045,"label":"Kodigehalli","violations":106,"impact_score":40.2,"avg_severity":0.737,"junction_frac":0.0,"main_road_frac":0.038,"top_violation":"WRONG PARKING"},{"gh6":"tdr1jx","lat":12.87479,"lon":77.59473,"label":"Hulimavu","violations":105,"impact_score":40.0,"avg_severity":0.741,"junction_frac":0.0,"main_road_frac":0.0,"top_violation":"WRONG PARKING"},{"gh6":"tdr1nf","lat":12.84349,"lon":77.64427,"label":"Electronic City","violations":106,"impact_score":40.0,"avg_severity":0.708,"junction_frac":0.0,"main_road_frac":0.075,"top_violation":"NO PARKING"},{"gh6":"tdr1wk","lat":12.94235,"lon":77.6223,"label":"Adugodi","violations":113,"impact_score":39.9,"avg_severity":0.665,"junction_frac":0.0,"main_road_frac":0.044,"top_violation":"NO PARKING"},{"gh6":"tdr3bk","lat":12.98864,"lon":77.71061,"label":"Mahadevapura","violations":97,"impact_score":39.8,"avg_severity":0.773,"junction_frac":0.0,"main_road_frac":0.031,"top_violation":"WRONG PARKING"},{"gh6":"tdr727","lat":13.24504,"lon":77.71321,"label":"Devanahalli Airport","violations":106,"impact_score":39.7,"avg_severity":0.689,"junction_frac":0.0,"main_road_frac":0.066,"top_violation":"NO PARKING"},{"gh6":"tdr1k8","lat":12.87906,"lon":77.54539,"label":"Thalagattapura","violations":99,"impact_score":39.5,"avg_severity":0.727,"junction_frac":0.0,"main_road_frac":0.051,"top_violation":"WRONG PARKING"},{"gh6":"tdr1gc","lat":12.97389,"lon":77.50933,"label":"Jnanabharathi","violations":109,"impact_score":39.5,"avg_severity":0.675,"junction_frac":0.0,"main_road_frac":0.018,"top_violation":"NO PARKING"},{"gh6":"tdr1u5","lat":12.9839,"lon":77.52874,"label":"Kamakshipalya","violations":100,"impact_score":39.5,"avg_severity":0.72,"junction_frac":0.0,"main_road_frac":0.05,"top_violation":"WRONG PARKING"},{"gh6":"tdr1x0","lat":12.92301,"lon":77.65149,"label":"HSR Layout","violations":109,"impact_score":39.2,"avg_severity":0.655,"junction_frac":0.0,"main_road_frac":0.009,"top_violation":"NO PARKING"},{"gh6":"tdr3c7","lat":12.98336,"lon":77.75209,"label":"Whitefield","violations":74,"impact_score":39.1,"avg_severity":0.816,"junction_frac":0.0,"main_road_frac":0.365,"top_violation":"PARKING IN A MAIN ROAD"},{"gh6":"tdr4wk","lat":13.12166,"lon":77.62269,"label":"Yelahanka","violations":87,"impact_score":39.0,"avg_severity":0.8,"junction_frac":0.0,"main_road_frac":0.023,"top_violation":"WRONG PARKING"},{"gh6":"tdr1sr","lat":12.96075,"lon":77.53358,"label":"BTP017 - Attiguppe Circle","violations":60,"impact_score":39.0,"avg_severity":0.778,"junction_frac":0.9,"main_road_frac":0.1,"top_violation":"WRONG PARKING"},{"gh6":"tdr1u7","lat":12.98196,"lon":77.53595,"label":"BTP208 - Havanur Circle","violations":83,"impact_score":38.9,"avg_severity":0.729,"junction_frac":0.301,"main_road_frac":0.0,"top_violation":"WRONG PARKING"},{"gh6":"tdr1m5","lat":12.89386,"lon":77.56857,"label":"K.S. Layout","violations":97,"impact_score":38.6,"avg_severity":0.67,"junction_frac":0.0,"main_road_frac":0.082,"top_violation":"NO PARKING"},{"gh6":"tdr4nq","lat":13.0455,"lon":77.62709,"label":"Hennuru","violations":112,"impact_score":38.6,"avg_severity":0.604,"junction_frac":0.0,"main_road_frac":0.0,"top_violation":"NO PARKING"},{"gh6":"tdr46c","lat":13.05843,"lon":77.46658,"label":"No Police Station","violations":83,"impact_score":38.6,"avg_severity":0.796,"junction_frac":0.0,"main_road_frac":0.048,"top_violation":"WRONG PARKING"},{"gh6":"tdr4jj","lat":13.03739,"lon":77.56705,"label":"Kodigehalli","violations":91,"impact_score":38.6,"avg_severity":0.721,"junction_frac":0.0,"main_road_frac":0.066,"top_violation":"WRONG PARKING"},{"gh6":"tdr1hr","lat":12.87245,"lon":77.53922,"label":"Thalagattapura","violations":81,"impact_score":38.4,"avg_severity":0.759,"junction_frac":0.0,"main_road_frac":0.16,"top_violation":"WRONG PARKING"},{"gh6":"tdr1re","lat":12.89522,"lon":77.67582,"label":"Bellandur","violations":81,"impact_score":38.2,"avg_severity":0.8,"junction_frac":0.0,"main_road_frac":0.0,"top_violation":"WRONG PARKING"},{"gh6":"tdr1te","lat":12.93831,"lon":77.59264,"label":"Wilson Garden","violations":106,"impact_score":38.2,"avg_severity":0.611,"junction_frac":0.0,"main_road_frac":0.0,"top_violation":"NO PARKING"},{"gh6":"tdr1yp","lat":13.00426,"lon":77.61275,"label":"Pulikeshinagar(F.Town)","violations":84,"impact_score":38.1,"avg_severity":0.75,"junction_frac":0.0,"main_road_frac":0.036,"top_violation":"WRONG PARKING"},{"gh6":"tdr1wj","lat":12.95162,"lon":77.60795,"label":"BTP132 - Anepalya Junction","violations":71,"impact_score":38.1,"avg_severity":0.628,"junction_frac":0.887,"main_road_frac":0.014,"top_violation":"NO PARKING"},{"gh6":"tdr1mm","lat":12.90636,"lon":77.5804,"label":"BTP200 - 15th Cross, 33rd Main, JP Nagar","violations":59,"impact_score":38.1,"avg_severity":0.708,"junction_frac":1.0,"main_road_frac":0.085,"top_violation":"NO PARKING"},{"gh6":"tdr4hw","lat":13.0457,"lon":77.54816,"label":"Jalahalli","violations":65,"impact_score":38.0,"avg_severity":0.849,"junction_frac":0.0,"main_road_frac":0.308,"top_violation":"WRONG PARKING"},{"gh6":"tdr3bm","lat":12.9924,"lon":77.71607,"label":"Mahadevapura","violations":78,"impact_score":38.0,"avg_severity":0.777,"junction_frac":0.0,"main_road_frac":0.103,"top_violation":"WRONG PARKING"},{"gh6":"tdr1wp","lat":12.96155,"lon":77.6155,"label":"BTP142 - Lower Agram Road Junction","violations":47,"impact_score":38.0,"avg_severity":0.877,"junction_frac":0.702,"main_road_frac":0.383,"top_violation":"WRONG PARKING"},{"gh6":"tdr39n","lat":12.95652,"lon":77.74448,"label":"Whitefield","violations":73,"impact_score":37.7,"avg_severity":0.773,"junction_frac":0.0,"main_road_frac":0.192,"top_violation":"WRONG PARKING"},{"gh6":"tdr1ry","lat":12.91023,"lon":77.68594,"label":"Bellandur","violations":89,"impact_score":37.7,"avg_severity":0.68,"junction_frac":0.0,"main_road_frac":0.056,"top_violation":"NO PARKING"},{"gh6":"tdr1z4","lat":12.97985,"lon":77.65236,"label":"Banaswadi","violations":100,"impact_score":37.4,"avg_severity":0.602,"junction_frac":0.0,"main_road_frac":0.0,"top_violation":"NO PARKING"},{"gh6":"tdr1pr","lat":12.87563,"lon":77.67115,"label":"Electronic City","violations":66,"impact_score":37.4,"avg_severity":0.832,"junction_frac":0.0,"main_road_frac":0.197,"top_violation":"WRONG PARKING"},{"gh6":"tdr1r5","lat":12.89435,"lon":77.65723,"label":"HSR Layout","violations":75,"impact_score":37.3,"avg_severity":0.72,"junction_frac":0.0,"main_road_frac":0.213,"top_violation":"NO PARKING"},{"gh6":"tdr1y7","lat":12.98145,"lon":77.62851,"label":"Halasur","violations":63,"impact_score":37.2,"avg_severity":0.789,"junction_frac":0.0,"main_road_frac":0.381,"top_violation":"NO PARKING"},{"gh6":"tdr4hd","lat":13.02241,"lon":77.5514,"label":"Yeshwanthpura","violations":60,"impact_score":37.1,"avg_severity":0.813,"junction_frac":0.0,"main_road_frac":0.4,"top_violation":"PARKING IN A MAIN ROAD"},{"gh6":"tdr1hq","lat":12.86857,"lon":77.53629,"label":"Thalagattapura","violations":65,"impact_score":37.1,"avg_severity":0.812,"junction_frac":0.0,"main_road_frac":0.215,"top_violation":"WRONG PARKING"},{"gh6":"tdr1rt","lat":12.90602,"lon":77.67593,"label":"Bellandur","violations":76,"impact_score":37.1,"avg_severity":0.742,"junction_frac":0.0,"main_road_frac":0.066,"top_violation":"WRONG PARKING"},{"gh6":"tdr1mc","lat":12.88421,"lon":77.59815,"label":"Hulimavu","violations":74,"impact_score":37.1,"avg_severity":0.792,"junction_frac":0.0,"main_road_frac":0.0,"top_violation":"WRONG PARKING"},{"gh6":"tdr4p4","lat":13.02063,"lon":77.65691,"label":"Hennuru","violations":79,"impact_score":37.0,"avg_severity":0.732,"junction_frac":0.0,"main_road_frac":0.0,"top_violation":"WRONG PARKING"},{"gh6":"tdr1rn","lat":12.91194,"lon":77.65165,"label":"HSR Layout","violations":85,"impact_score":36.9,"avg_severity":0.671,"junction_frac":0.0,"main_road_frac":0.0,"top_violation":"NO PARKING"},{"gh6":"tdr1s7","lat":12.93846,"lon":77.53342,"label":"Banashankari","violations":72,"impact_score":36.9,"avg_severity":0.783,"junction_frac":0.0,"main_road_frac":0.028,"top_violation":"WRONG PARKING"},{"gh6":"tdr4m6","lat":13.06653,"lon":77.58041,"label":"Kodigehalli","violations":70,"impact_score":36.8,"avg_severity":0.802,"junction_frac":0.0,"main_road_frac":0.014,"top_violation":"WRONG PARKING"},{"gh6":"tdr1rh","lat":12.90144,"lon":77.66044,"label":"Bellandur","violations":72,"impact_score":36.8,"avg_severity":0.783,"junction_frac":0.0,"main_road_frac":0.014,"top_violation":"WRONG PARKING"},{"gh6":"tdr60v","lat":13.03588,"lon":77.73561,"label":"K.R. Pura","violations":69,"impact_score":36.6,"avg_severity":0.801,"junction_frac":0.0,"main_road_frac":0.014,"top_violation":"PARKING NEAR ROAD CROSSING"},{"gh6":"tdr1y0","lat":12.96716,"lon":77.60886,"label":"BTP141 - Palmgroove Junction","violations":69,"impact_score":36.6,"avg_severity":0.659,"junction_frac":0.377,"main_road_frac":0.072,"top_violation":"NO PARKING"},{"gh6":"tdr61n","lat":13.04561,"lon":77.75007,"label":"K.R. Pura","violations":71,"impact_score":36.5,"avg_severity":0.746,"junction_frac":0.0,"main_road_frac":0.07,"top_violation":"NO PARKING"},{"gh6":"tdr4k2","lat":13.05503,"lon":77.53463,"label":"Jalahalli","violations":76,"impact_score":36.5,"avg_severity":0.716,"junction_frac":0.0,"main_road_frac":0.026,"top_violation":"WRONG PARKING"},{"gh6":"tdr4k9","lat":13.05772,"lon":77.54642,"label":"Jalahalli","violations":83,"impact_score":36.5,"avg_severity":0.655,"junction_frac":0.0,"main_road_frac":0.024,"top_violation":"NO PARKING"},{"gh6":"tdr1zu","lat":12.98878,"lon":77.68875,"label":"Mahadevapura","violations":61,"impact_score":36.5,"avg_severity":0.82,"junction_frac":0.0,"main_road_frac":0.197,"top_violation":"WRONG PARKING"},{"gh6":"tdr1qv","lat":12.90362,"lon":77.64213,"label":"HSR Layout","violations":74,"impact_score":36.5,"avg_severity":0.741,"junction_frac":0.0,"main_road_frac":0.0,"top_violation":"WRONG PARKING"},{"gh6":"tdr458","lat":13.01069,"lon":77.50639,"label":"Peenya","violations":72,"impact_score":36.4,"avg_severity":0.739,"junction_frac":0.0,"main_road_frac":0.042,"top_violation":"WRONG PARKING"},{"gh6":"tdr3br","lat":13.00441,"lon":77.71073,"label":"K.R. Pura","violations":64,"impact_score":36.2,"avg_severity":0.778,"junction_frac":0.0,"main_road_frac":0.141,"top_violation":"WRONG PARKING"},{"gh6":"tdr4nn","lat":13.04169,"lon":77.61387,"label":"Hennuru","violations":62,"impact_score":36.2,"avg_severity":0.773,"junction_frac":0.0,"main_road_frac":0.226,"top_violation":"WRONG PARKING"},{"gh6":"tdr1wm","lat":12.94937,"lon":77.6228,"label":"Ashok Nagar","violations":67,"impact_score":36.1,"avg_severity":0.746,"junction_frac":0.0,"main_road_frac":0.104,"top_violation":"WRONG PARKING"},{"gh6":"tdr1xb","lat":12.9248,"lon":77.69486,"label":"Bellandur","violations":50,"impact_score":36.1,"avg_severity":0.864,"junction_frac":0.0,"main_road_frac":0.44,"top_violation":"PARKING IN A MAIN ROAD"},{"gh6":"tdr1eg","lat":12.93653,"lon":77.5179,"label":"Byatarayanapura","violations":67,"impact_score":36.1,"avg_severity":0.779,"junction_frac":0.0,"main_road_frac":0.03,"top_violation":"WRONG PARKING"},{"gh6":"tdr453","lat":13.01415,"lon":77.49195,"label":"Kamakshipalya","violations":65,"impact_score":36.0,"avg_severity":0.8,"junction_frac":0.0,"main_road_frac":0.015,"top_violation":"WRONG PARKING"},{"gh6":"tdr3c6","lat":12.97907,"lon":77.75133,"label":"Whitefield","violations":55,"impact_score":36.0,"avg_severity":0.789,"junction_frac":0.0,"main_road_frac":0.418,"top_violation":"NO PARKING"},{"gh6":"tdr1gf","lat":12.9794,"lon":77.5107,"label":"Jnanabharathi","violations":52,"impact_score":35.9,"avg_severity":0.825,"junction_frac":0.0,"main_road_frac":0.423,"top_violation":"PARKING IN A MAIN ROAD"},{"gh6":"tdr1hj","lat":12.86217,"lon":77.52995,"label":"Thalagattapura","violations":66,"impact_score":35.8,"avg_severity":0.73,"junction_frac":0.0,"main_road_frac":0.136,"top_violation":"NO PARKING"},{"gh6":"tdr3bt","lat":12.99379,"lon":77.71768,"label":"Mahadevapura","violations":59,"impact_score":35.8,"avg_severity":0.79,"junction_frac":0.0,"main_road_frac":0.203,"top_violation":"WRONG PARKING"},{"gh6":"tdr2b5","lat":12.8066,"lon":77.69839,"label":"Electronic City","violations":42,"impact_score":35.7,"avg_severity":0.92,"junction_frac":0.0,"main_road_frac":0.619,"top_violation":"PARKING IN A MAIN ROAD"},{"gh6":"tdr1wb","lat":12.92194,"lon":77.64518,"label":"HSR Layout","violations":79,"impact_score":35.5,"avg_severity":0.63,"junction_frac":0.0,"main_road_frac":0.0,"top_violation":"NO PARKING"},{"gh6":"tdr4k5","lat":13.06872,"lon":77.53003,"label":"Jalahalli","violations":70,"impact_score":35.5,"avg_severity":0.711,"junction_frac":0.0,"main_road_frac":0.0,"top_violation":"WRONG PARKING"},{"gh6":"tdr1gq","lat":12.9995,"lon":77.48874,"label":"Kamakshipalya","violations":62,"impact_score":35.5,"avg_severity":0.797,"junction_frac":0.0,"main_road_frac":0.016,"top_violation":"WRONG PARKING"},{"gh6":"tdr1g5","lat":12.98544,"lon":77.47993,"label":"Kamakshipalya","violations":63,"impact_score":35.4,"avg_severity":0.765,"junction_frac":0.0,"main_road_frac":0.048,"top_violation":"WRONG PARKING"},{"gh6":"tdr333","lat":12.8835,"lon":77.75231,"label":"No Police Station","violations":53,"impact_score":35.3,"avg_severity":0.827,"junction_frac":0.0,"main_road_frac":0.226,"top_violation":"WRONG PARKING"},{"gh6":"tdr1p8","lat":12.83556,"lon":77.67917,"label":"Electronic City","violations":55,"impact_score":35.3,"avg_severity":0.815,"junction_frac":0.0,"main_road_frac":0.182,"top_violation":"WRONG PARKING"},{"gh6":"tdr4nf","lat":13.02171,"lon":77.6433,"label":"Banaswadi","violations":65,"impact_score":35.2,"avg_severity":0.726,"junction_frac":0.0,"main_road_frac":0.046,"top_violation":"WRONG PARKING"},{"gh6":"tdr1tb","lat":12.92093,"lon":77.60045,"label":"BTP128 - Gorappanapalya Junction","violations":45,"impact_score":35.2,"avg_severity":0.68,"junction_frac":0.956,"main_road_frac":0.2,"top_violation":"NO PARKING"},{"gh6":"tdr3b1","lat":12.96975,"lon":77.70045,"label":"HAL Old Airport","violations":65,"impact_score":35.2,"avg_severity":0.692,"junction_frac":0.0,"main_road_frac":0.154,"top_violation":"NO PARKING"},{"gh6":"tdr1qu","lat":12.90019,"lon":77.64701,"label":"HSR Layout","violations":58,"impact_score":34.9,"avg_severity":0.766,"junction_frac":0.0,"main_road_frac":0.121,"top_violation":"WRONG PARKING"},{"gh6":"tdr1js","lat":12.85742,"lon":77.58896,"label":"Hulimavu","violations":70,"impact_score":34.9,"avg_severity":0.671,"junction_frac":0.0,"main_road_frac":0.0,"top_violation":"NO PARKING"},{"gh6":"tdr1y8","lat":12.96666,"lon":77.63682,"label":"BTP148 - 17th Main, Doopanahalli Bus Stop","violations":37,"impact_score":34.8,"avg_severity":0.87,"junction_frac":0.432,"main_road_frac":0.459,"top_violation":"PARKING IN A MAIN ROAD"},{"gh6":"tdr4r1","lat":13.06047,"lon":77.65207,"label":"Hennuru","violations":71,"impact_score":34.8,"avg_severity":0.648,"junction_frac":0.0,"main_road_frac":0.014,"top_violation":"NO PARKING"},{"gh6":"tdr1zr","lat":13.00353,"lon":77.66277,"label":"Banaswadi","violations":74,"impact_score":34.5,"avg_severity":0.611,"junction_frac":0.0,"main_road_frac":0.0,"top_violation":"NO PARKING"},{"gh6":"tdr1wh","lat":12.9436,"lon":77.60796,"label":"BTP133 - Adugodi Junction","violations":37,"impact_score":34.5,"avg_severity":0.786,"junction_frac":0.811,"main_road_frac":0.297,"top_violation":"NO PARKING"},{"gh6":"tdr704","lat":13.19861,"lon":77.70373,"label":"Devanahalli Airport","violations":70,"impact_score":34.4,"avg_severity":0.637,"junction_frac":0.0,"main_road_frac":0.0,"top_violation":"NO PARKING"},{"gh6":"tdr1uh","lat":12.98729,"lon":77.5205,"label":"Kamakshipalya","violations":71,"impact_score":34.2,"avg_severity":0.614,"junction_frac":0.0,"main_road_frac":0.014,"top_violation":"NO PARKING"},{"gh6":"tdr1hx","lat":12.87552,"lon":77.54361,"label":"Thalagattapura","violations":50,"impact_score":34.1,"avg_severity":0.78,"junction_frac":0.0,"main_road_frac":0.22,"top_violation":"WRONG PARKING"},{"gh6":"tdr1m4","lat":12.89046,"lon":77.56412,"label":"Thalagattapura","violations":63,"impact_score":34.1,"avg_severity":0.683,"junction_frac":0.0,"main_road_frac":0.016,"top_violation":"NO PARKING"},{"gh6":"tdr4h1","lat":13.01515,"lon":77.52974,"label":"Rajajinagar","violations":36,"impact_score":33.9,"avg_severity":0.901,"junction_frac":0.0,"main_road_frac":0.611,"top_violation":"PARKING IN A MAIN ROAD"},{"gh6":"tdr1e7","lat":12.93806,"lon":77.49278,"label":"Jnanabharathi","violations":63,"impact_score":33.8,"avg_severity":0.67,"junction_frac":0.0,"main_road_frac":0.0,"top_violation":"NO PARKING"},{"gh6":"tdr0zy","lat":12.82302,"lon":77.68564,"label":"Electronic City","violations":34,"impact_score":33.8,"avg_severity":0.929,"junction_frac":0.0,"main_road_frac":0.647,"top_violation":"PARKING IN A MAIN ROAD"},{"gh6":"tdr4hg","lat":13.02832,"lon":77.56184,"label":"Yeshwanthpura","violations":49,"impact_score":33.7,"avg_severity":0.771,"junction_frac":0.0,"main_road_frac":0.204,"top_violation":"WRONG PARKING"},{"gh6":"tdr1qz","lat":12.91953,"lon":77.645,"label":"HSR Layout","violations":66,"impact_score":33.7,"avg_severity":0.633,"junction_frac":0.0,"main_road_frac":0.0,"top_violation":"NO PARKING"},{"gh6":"tdr4m7","lat":13.06969,"lon":77.58506,"label":"Kodigehalli","violations":57,"impact_score":33.6,"avg_severity":0.723,"junction_frac":0.0,"main_road_frac":0.0,"top_violation":"WRONG PARKING"},{"gh6":"tdr4mz","lat":13.09496,"lon":77.59765,"label":"Yelahanka","violations":47,"impact_score":33.5,"avg_severity":0.806,"junction_frac":0.0,"main_road_frac":0.149,"top_violation":"WRONG PARKING"},{"gh6":"tdr4n2","lat":13.01284,"lon":77.62629,"label":"Banaswadi","violations":63,"impact_score":33.4,"avg_severity":0.629,"junction_frac":0.0,"main_road_frac":0.032,"top_violation":"NO PARKING"},{"gh6":"tdr1sb","lat":12.92266,"lon":77.55989,"label":"BTP158 - Devegowda Petrol Bunk","violations":34,"impact_score":33.4,"avg_severity":0.772,"junction_frac":1.0,"main_road_frac":0.088,"top_violation":"WRONG PARKING"},{"gh6":"tdr4kt","lat":13.08169,"lon":77.54821,"label":"Yelahanka","violations":53,"impact_score":33.4,"avg_severity":0.711,"junction_frac":0.0,"main_road_frac":0.132,"top_violation":"NO PARKING"},{"gh6":"tdr4t0","lat":13.09811,"lon":77.56874,"label":"Yelahanka","violations":64,"impact_score":33.3,"avg_severity":0.622,"junction_frac":0.0,"main_road_frac":0.0,"top_violation":"NO PARKING"},{"gh6":"tdr470","lat":13.05382,"lon":77.48391,"label":"No Police Station","violations":49,"impact_score":33.3,"avg_severity":0.804,"junction_frac":0.0,"main_road_frac":0.02,"top_violation":"WRONG PARKING"},{"gh6":"tdr1sn","lat":12.95645,"lon":77.51971,"label":"Byatarayanapura","violations":32,"impact_score":33.2,"avg_severity":0.912,"junction_frac":0.0,"main_road_frac":0.719,"top_violation":"PARKING IN A MAIN ROAD"},{"gh6":"tdr4h2","lat":13.01078,"lon":77.53576,"label":"Rajajinagar","violations":50,"impact_score":33.1,"avg_severity":0.72,"junction_frac":0.0,"main_road_frac":0.18,"top_violation":"NO PARKING"},{"gh6":"tdr4q7","lat":13.06879,"lon":77.62594,"label":"Hennuru","violations":54,"impact_score":33.0,"avg_severity":0.667,"junction_frac":0.0,"main_road_frac":0.148,"top_violation":"NO PARKING"},{"gh6":"tdr39p","lat":12.96075,"lon":77.74755,"label":"Whitefield","violations":46,"impact_score":32.9,"avg_severity":0.771,"junction_frac":0.0,"main_road_frac":0.174,"top_violation":"WRONG PARKING"},{"gh6":"tdr4hn","lat":13.04546,"lon":77.52227,"label":"Chikkabanavara","violations":49,"impact_score":32.8,"avg_severity":0.718,"junction_frac":0.0,"main_road_frac":0.163,"top_violation":"NO PARKING"},{"gh6":"tdr1qk","lat":12.9031,"lon":77.62545,"label":"Madiwala","violations":53,"impact_score":32.8,"avg_severity":0.694,"junction_frac":0.0,"main_road_frac":0.057,"top_violation":"NO PARKING"},{"gh6":"tdr1q9","lat":12.8849,"lon":77.63821,"label":"Hulimavu","violations":47,"impact_score":32.7,"avg_severity":0.8,"junction_frac":0.0,"main_road_frac":0.0,"top_violation":"WRONG PARKING"},{"gh6":"tdr1zg","lat":12.98051,"lon":77.69438,"label":"Mahadevapura","violations":34,"impact_score":32.6,"avg_severity":0.885,"junction_frac":0.0,"main_road_frac":0.471,"top_violation":"PARKING IN A MAIN ROAD"},{"gh6":"tdr1ss","lat":12.94232,"lon":77.54836,"label":"Banashankari","violations":35,"impact_score":32.5,"avg_severity":0.864,"junction_frac":0.0,"main_road_frac":0.429,"top_violation":"PARKING IN A MAIN ROAD"},{"gh6":"tdr4ne","lat":13.02628,"lon":77.63144,"label":"K.G. Halli","violations":43,"impact_score":32.4,"avg_severity":0.777,"junction_frac":0.0,"main_road_frac":0.186,"top_violation":"WRONG PARKING"},{"gh6":"tdr4j8","lat":13.01078,"lon":77.59413,"label":"R.T. Nagar","violations":48,"impact_score":32.4,"avg_severity":0.737,"junction_frac":0.0,"main_road_frac":0.062,"top_violation":"WRONG PARKING"},{"gh6":"tdr1xy","lat":12.95573,"lon":77.69232,"label":"HAL Old Airport","violations":42,"impact_score":32.3,"avg_severity":0.769,"junction_frac":0.0,"main_road_frac":0.238,"top_violation":"NO PARKING"},{"gh6":"tdr606","lat":13.01968,"lon":77.70871,"label":"K.R. Pura","violations":51,"impact_score":32.1,"avg_severity":0.698,"junction_frac":0.0,"main_road_frac":0.0,"top_violation":"NO PARKING"},{"gh6":"tdr60e","lat":13.02638,"lon":77.7206,"label":"K.R. Pura","violations":53,"impact_score":32.1,"avg_severity":0.66,"junction_frac":0.0,"main_road_frac":0.019,"top_violation":"NO PARKING"},{"gh6":"tdr1yw","lat":13.00201,"lon":77.6327,"label":"Banaswadi","violations":55,"impact_score":31.7,"avg_severity":0.611,"junction_frac":0.0,"main_road_frac":0.018,"top_violation":"NO PARKING"},{"gh6":"tdr4nx","lat":13.05018,"lon":77.63022,"label":"Hennuru","violations":57,"impact_score":31.7,"avg_severity":0.6,"junction_frac":0.0,"main_road_frac":0.0,"top_violation":"NO PARKING"},{"gh6":"tdr1rx","lat":12.91664,"lon":77.67347,"label":"Bellandur","violations":45,"impact_score":31.7,"avg_severity":0.756,"junction_frac":0.0,"main_road_frac":0.0,"top_violation":"WRONG PARKING"},{"gh6":"tdr1uc","lat":12.97464,"lon":77.56176,"label":"BTP074 - Leprosy Hospital Junction","violations":32,"impact_score":31.6,"avg_severity":0.756,"junction_frac":0.781,"main_road_frac":0.0,"top_violation":"WRONG PARKING"},{"gh6":"tdr1k9","lat":12.88327,"lon":77.54884,"label":"Thalagattapura","violations":49,"impact_score":31.6,"avg_severity":0.671,"junction_frac":0.0,"main_road_frac":0.041,"top_violation":"NO PARKING"},{"gh6":"tdr4h5","lat":13.02548,"lon":77.52017,"label":"Peenya","violations":36,"impact_score":31.5,"avg_severity":0.822,"junction_frac":0.0,"main_road_frac":0.25,"top_violation":"WRONG PARKING"},{"gh6":"tdr1sx","lat":12.96102,"lon":77.55092,"label":"BTP093 - Toll Gate, Mysore Road","violations":37,"impact_score":31.5,"avg_severity":0.638,"junction_frac":0.838,"main_road_frac":0.0,"top_violation":"NO PARKING"},{"gh6":"tdr1t0","lat":12.92359,"lon":77.57147,"label":"BTP114 - KR Road Junction, Near JSS","violations":36,"impact_score":31.5,"avg_severity":0.683,"junction_frac":0.722,"main_road_frac":0.0,"top_violation":"NO PARKING"},{"gh6":"tdr1ek","lat":12.94527,"lon":77.49481,"label":"Jnanabharathi","violations":42,"impact_score":31.4,"avg_severity":0.738,"junction_frac":0.0,"main_road_frac":0.143,"top_violation":"NO PARKING"},{"gh6":"tdr472","lat":13.05208,"lon":77.48759,"label":"No Police Station","violations":39,"impact_score":31.2,"avg_severity":0.806,"junction_frac":0.0,"main_road_frac":0.051,"top_violation":"WRONG PARKING"},{"gh6":"tdr4jk","lat":13.03147,"lon":77.57707,"label":"Kodigehalli","violations":42,"impact_score":31.2,"avg_severity":0.762,"junction_frac":0.0,"main_road_frac":0.024,"top_violation":"WRONG PARKING"},{"gh6":"tdr3c1","lat":12.96984,"lon":77.74991,"label":"Whitefield","violations":33,"impact_score":31.2,"avg_severity":0.827,"junction_frac":0.0,"main_road_frac":0.364,"top_violation":"PARKING IN A MAIN ROAD"},{"gh6":"tdr17x","lat":12.91705,"lon":77.50018,"label":"Kengeri","violations":51,"impact_score":31.2,"avg_severity":0.631,"junction_frac":0.0,"main_road_frac":0.02,"top_violation":"NO PARKING"},{"gh6":"tdr4t7","lat":13.11685,"lon":77.57796,"label":"Yelahanka","violations":49,"impact_score":31.1,"avg_severity":0.655,"junction_frac":0.0,"main_road_frac":0.0,"top_violation":"NO PARKING"},{"gh6":"tdr469","lat":13.06075,"lon":77.46124,"label":"No Police Station","violations":39,"impact_score":30.9,"avg_severity":0.785,"junction_frac":0.0,"main_road_frac":0.051,"top_violation":"WRONG PARKING"},{"gh6":"tdr0zx","lat":12.82829,"lon":77.68208,"label":"Electronic City","violations":24,"impact_score":30.9,"avg_severity":0.954,"junction_frac":0.0,"main_road_frac":0.75,"top_violation":"PARKING IN A MAIN ROAD"},{"gh6":"tdr1xn","lat":12.95713,"lon":77.65379,"label":"Jeevanbheemanagar","violations":33,"impact_score":30.8,"avg_severity":0.782,"junction_frac":0.0,"main_road_frac":0.424,"top_violation":"NO PARKING"},{"gh6":"tdr612","lat":13.00899,"lon":77.75883,"label":"Mahadevapura","violations":49,"impact_score":30.6,"avg_severity":0.62,"junction_frac":0.0,"main_road_frac":0.0,"top_violation":"NO PARKING"},{"gh6":"tdr1kz","lat":12.91804,"lon":77.55971,"label":"BTP158 - Devegowda Petrol Bunk","violations":27,"impact_score":30.5,"avg_severity":0.807,"junction_frac":0.593,"main_road_frac":0.185,"top_violation":"WRONG PARKING"},{"gh6":"tdr1kx","lat":12.91928,"lon":77.54216,"label":"Banashankari","violations":26,"impact_score":30.4,"avg_severity":0.904,"junction_frac":0.0,"main_road_frac":0.538,"top_violation":"PARKING IN A MAIN ROAD"},{"gh6":"tdr1q0","lat":12.87615,"lon":77.61648,"label":"Hulimavu","violations":48,"impact_score":30.4,"avg_severity":0.625,"junction_frac":0.0,"main_road_frac":0.0,"top_violation":"NO PARKING"},{"gh6":"tdr45g","lat":13.02784,"lon":77.51776,"label":"Peenya","violations":37,"impact_score":30.2,"avg_severity":0.784,"junction_frac":0.0,"main_road_frac":0.027,"top_violation":"WRONG PARKING"},{"gh6":"tdr4n7","lat":13.02595,"lon":77.62753,"label":"K.G. Halli","violations":31,"impact_score":30.2,"avg_severity":0.813,"junction_frac":0.0,"main_road_frac":0.323,"top_violation":"PARKING IN A MAIN ROAD"},{"gh6":"tdr4qf","lat":13.06399,"lon":77.65041,"label":"Hennuru","violations":36,"impact_score":30.1,"avg_severity":0.761,"junction_frac":0.0,"main_road_frac":0.111,"top_violation":"WRONG PARKING"},{"gh6":"tdr32k","lat":12.90119,"lon":77.70923,"label":"Whitefield","violations":36,"impact_score":30.0,"avg_severity":0.794,"junction_frac":0.0,"main_road_frac":0.0,"top_violation":"WRONG PARKING"},{"gh6":"tdr4tf","lat":13.11024,"lon":77.60403,"label":"Yelahanka","violations":36,"impact_score":30.0,"avg_severity":0.794,"junction_frac":0.0,"main_road_frac":0.0,"top_violation":"WRONG PARKING"},{"gh6":"tdr1fu","lat":12.98851,"lon":77.47297,"label":"Kamakshipalya","violations":32,"impact_score":30.0,"avg_severity":0.775,"junction_frac":0.0,"main_road_frac":0.312,"top_violation":"NO PARKING"},{"gh6":"tdr1ex","lat":12.96068,"lon":77.50486,"label":"Jnanabharathi","violations":36,"impact_score":30.0,"avg_severity":0.756,"junction_frac":0.0,"main_road_frac":0.111,"top_violation":"WRONG PARKING"},{"gh6":"tdr1ze","lat":12.9836,"lon":77.67978,"label":"Banaswadi","violations":33,"impact_score":30.0,"avg_severity":0.821,"junction_frac":0.0,"main_road_frac":0.121,"top_violation":"WRONG PARKING"},{"gh6":"tdr4n4","lat":13.02068,"lon":77.61344,"label":"K.G. Halli","violations":38,"impact_score":30.0,"avg_severity":0.753,"junction_frac":0.0,"main_road_frac":0.0,"top_violation":"WRONG PARKING"},{"gh6":"tdr4hy","lat":13.04384,"lon":77.55645,"label":"Jalahalli","violations":40,"impact_score":29.8,"avg_severity":0.705,"junction_frac":0.0,"main_road_frac":0.0,"top_violation":"WRONG PARKING"},{"gh6":"tdr5pd","lat":13.19751,"lon":77.68001,"label":"Devanahalli Airport","violations":44,"impact_score":29.7,"avg_severity":0.632,"junction_frac":0.0,"main_road_frac":0.0,"top_violation":"NO PARKING"},{"gh6":"tdr4h4","lat":13.02106,"lon":77.52844,"label":"Yeshwanthpura","violations":36,"impact_score":29.6,"avg_severity":0.756,"junction_frac":0.0,"main_road_frac":0.028,"top_violation":"WRONG PARKING"},{"gh6":"tdr1r6","lat":12.88987,"lon":77.66927,"label":"Electronic City","violations":28,"impact_score":29.0,"avg_severity":0.788,"junction_frac":0.0,"main_road_frac":0.357,"top_violation":"NO PARKING"},{"gh6":"tdr4m2","lat":13.05314,"lon":77.57512,"label":"Kodigehalli","violations":33,"impact_score":29.0,"avg_severity":0.788,"junction_frac":0.0,"main_road_frac":0.0,"top_violation":"WRONG PARKING"},{"gh6":"tdr1zx","lat":13.00474,"lon":77.68413,"label":"K.R. Pura","violations":33,"impact_score":28.9,"avg_severity":0.776,"junction_frac":0.0,"main_road_frac":0.0,"top_violation":"WRONG PARKING"},{"gh6":"tdr3bb","lat":12.96405,"lon":77.73316,"label":"Whitefield","violations":20,"impact_score":28.9,"avg_severity":0.93,"junction_frac":0.0,"main_road_frac":0.75,"top_violation":"PARKING IN A MAIN ROAD"},{"gh6":"tdr4qd","lat":13.06808,"lon":77.62966,"label":"Hennuru","violations":28,"impact_score":28.5,"avg_severity":0.757,"junction_frac":0.0,"main_road_frac":0.321,"top_violation":"NO PARKING"},{"gh6":"tdr17y","lat":12.90987,"lon":77.51344,"label":"Kengeri","violations":35,"impact_score":28.5,"avg_severity":0.669,"junction_frac":0.0,"main_road_frac":0.114,"top_violation":"NO PARKING"},{"gh6":"tdr1yu","lat":12.98667,"lon":77.64791,"label":"Banaswadi","violations":25,"impact_score":28.4,"avg_severity":0.84,"junction_frac":0.0,"main_road_frac":0.32,"top_violation":"WRONG PARKING"},{"gh6":"tdr1gk","lat":12.98614,"lon":77.48803,"label":"Kamakshipalya","violations":33,"impact_score":28.4,"avg_severity":0.697,"junction_frac":0.0,"main_road_frac":0.121,"top_violation":"NO PARKING"},{"gh6":"tdr60u","lat":13.03467,"lon":77.73398,"label":"K.R. Pura","violations":39,"impact_score":28.3,"avg_severity":0.623,"junction_frac":0.0,"main_road_frac":0.0,"top_violation":"NO PARKING"},{"gh6":"tdr4p0","lat":13.01102,"lon":77.65918,"label":"Banaswadi","violations":38,"impact_score":28.3,"avg_severity":0.637,"junction_frac":0.0,"main_road_frac":0.0,"top_violation":"NO PARKING"},{"gh6":"tdr1t1","lat":12.9296,"lon":77.56796,"label":"BTP112 - 14th Cross, KR Road","violations":29,"impact_score":28.2,"avg_severity":0.697,"junction_frac":0.31,"main_road_frac":0.069,"top_violation":"NO PARKING"},{"gh6":"tdr1zh","lat":12.99101,"lon":77.65695,"label":"Banaswadi","violations":21,"impact_score":28.2,"avg_severity":0.905,"junction_frac":0.0,"main_road_frac":0.524,"top_violation":"PARKING IN A MAIN ROAD"},{"gh6":"tdr4hj","lat":13.03839,"lon":77.52033,"label":"Peenya","violations":28,"impact_score":28.0,"avg_severity":0.807,"junction_frac":0.0,"main_road_frac":0.071,"top_violation":"WRONG PARKING"},{"gh6":"tdr32p","lat":12.91546,"lon":77.6987,"label":"Bellandur","violations":29,"impact_score":27.7,"avg_severity":0.786,"junction_frac":0.0,"main_road_frac":0.0,"top_violation":"WRONG PARKING"},{"gh6":"tdr32f","lat":12.88747,"lon":77.73846,"label":"No Police Station","violations":19,"impact_score":27.6,"avg_severity":0.918,"junction_frac":0.0,"main_road_frac":0.579,"top_violation":"PARKING IN A MAIN ROAD"},{"gh6":"tdr1p1","lat":12.84027,"lon":77.65236,"label":"Electronic City","violations":31,"impact_score":27.5,"avg_severity":0.723,"junction_frac":0.0,"main_road_frac":0.0,"top_violation":"WRONG PARKING"},{"gh6":"tdr1st","lat":12.9528,"lon":77.54163,"label":"BTP096 - Gali Anjaneya Temple","violations":19,"impact_score":27.4,"avg_severity":0.747,"junction_frac":1.0,"main_road_frac":0.105,"top_violation":"WRONG PARKING"},{"gh6":"tdr3be","lat":12.98068,"lon":77.72414,"label":"Mahadevapura","violations":28,"impact_score":27.3,"avg_severity":0.779,"junction_frac":0.0,"main_road_frac":0.0,"top_violation":"WRONG PARKING"},{"gh6":"tdr1yx","lat":13.003,"lon":77.63519,"label":"Banaswadi","violations":29,"impact_score":27.3,"avg_severity":0.731,"junction_frac":0.0,"main_road_frac":0.069,"top_violation":"WRONG PARKING"},{"gh6":"tdr4n0","lat":13.00853,"lon":77.61321,"label":"K.G. Halli","violations":28,"impact_score":27.2,"avg_severity":0.707,"junction_frac":0.0,"main_road_frac":0.179,"top_violation":"NO PARKING"},{"gh6":"tdr4m4","lat":13.06488,"lon":77.5713,"label":"Kodigehalli","violations":26,"impact_score":27.1,"avg_severity":0.812,"junction_frac":0.0,"main_road_frac":0.038,"top_violation":"WRONG PARKING"},{"gh6":"tdr619","lat":13.01619,"lon":77.76187,"label":"Mahadevapura","violations":29,"impact_score":27.1,"avg_severity":0.738,"junction_frac":0.0,"main_road_frac":0.0,"top_violation":"WRONG PARKING"},{"gh6":"tdr4hm","lat":13.03754,"lon":77.53537,"label":"Jalahalli","violations":30,"impact_score":27.0,"avg_severity":0.687,"junction_frac":0.0,"main_road_frac":0.067,"top_violation":"NO PARKING"},{"gh6":"tdr38m","lat":12.95165,"lon":77.71656,"label":"Whitefield","violations":17,"impact_score":27.0,"avg_severity":0.924,"junction_frac":0.0,"main_road_frac":0.706,"top_violation":"PARKING IN A MAIN ROAD"},{"gh6":"tdr1xv","lat":12.95007,"lon":77.68972,"label":"HAL Old Airport","violations":31,"impact_score":27.0,"avg_severity":0.652,"junction_frac":0.0,"main_road_frac":0.097,"top_violation":"NO PARKING"},{"gh6":"tdr4kv","lat":13.0807,"lon":77.55952,"label":"Yelahanka","violations":27,"impact_score":26.9,"avg_severity":0.778,"junction_frac":0.0,"main_road_frac":0.0,"top_violation":"WRONG PARKING"},{"gh6":"tdr4y7","lat":13.16126,"lon":77.62643,"label":"Chikkajala","violations":25,"impact_score":26.9,"avg_severity":0.76,"junction_frac":0.0,"main_road_frac":0.2,"top_violation":"NO PARKING"},{"gh6":"tdr17p","lat":12.91469,"lon":77.48135,"label":"Kengeri","violations":25,"impact_score":26.9,"avg_severity":0.776,"junction_frac":0.0,"main_road_frac":0.16,"top_violation":"WRONG PARKING"},{"gh6":"tdr4tc","lat":13.10531,"lon":77.601,"label":"Yelahanka","violations":27,"impact_score":26.9,"avg_severity":0.778,"junction_frac":0.0,"main_road_frac":0.0,"top_violation":"WRONG PARKING"},{"gh6":"tdr1u4","lat":12.97631,"lon":77.5258,"label":"BTP214 - 5th Main Chamrajpet  Junction","violations":22,"impact_score":26.8,"avg_severity":0.782,"junction_frac":0.318,"main_road_frac":0.091,"top_violation":"WRONG PARKING"},{"gh6":"tdr1jp","lat":12.87255,"lon":77.56653,"label":"Thalagattapura","violations":26,"impact_score":26.7,"avg_severity":0.792,"junction_frac":0.0,"main_road_frac":0.0,"top_violation":"WRONG PARKING"},{"gh6":"tdr1zk","lat":12.98794,"lon":77.66376,"label":"Banaswadi","violations":26,"impact_score":26.4,"avg_severity":0.754,"junction_frac":0.0,"main_road_frac":0.038,"top_violation":"WRONG PARKING"},{"gh6":"tdr4jf","lat":13.02278,"lon":77.60087,"label":"R.T. Nagar","violations":25,"impact_score":26.3,"avg_severity":0.776,"junction_frac":0.0,"main_road_frac":0.04,"top_violation":"WRONG PARKING"},{"gh6":"tdr1wq","lat":12.95431,"lon":77.62239,"label":"Ashok Nagar","violations":26,"impact_score":26.3,"avg_severity":0.762,"junction_frac":0.0,"main_road_frac":0.0,"top_violation":"WRONG PARKING"},{"gh6":"tdr17q","lat":12.91388,"lon":77.48688,"label":"Kengeri","violations":13,"impact_score":26.2,"avg_severity":1.0,"junction_frac":0.0,"main_road_frac":1.0,"top_violation":"PARKING IN A MAIN ROAD"},{"gh6":"tdr1sf","lat":12.93388,"lon":77.56004,"label":"Banashankari","violations":22,"impact_score":26.0,"avg_severity":0.795,"junction_frac":0.0,"main_road_frac":0.182,"top_violation":"WRONG PARKING"},{"gh6":"tdr1g8","lat":12.96682,"lon":77.50478,"label":"Jnanabharathi","violations":24,"impact_score":26.0,"avg_severity":0.767,"junction_frac":0.0,"main_road_frac":0.083,"top_violation":"WRONG PARKING"},{"gh6":"tdr1et","lat":12.94881,"lon":77.49973,"label":"Jnanabharathi","violations":23,"impact_score":26.0,"avg_severity":0.8,"junction_frac":0.0,"main_road_frac":0.087,"top_violation":"WRONG PARKING"},{"gh6":"tdr603","lat":13.01617,"lon":77.7093,"label":"K.R. Pura","violations":19,"impact_score":26.0,"avg_severity":0.853,"junction_frac":0.0,"main_road_frac":0.368,"top_violation":"WRONG PARKING"},{"gh6":"tdr1sv","lat":12.94822,"lon":77.55918,"label":"Basavanagudi","violations":24,"impact_score":25.8,"avg_severity":0.733,"junction_frac":0.0,"main_road_frac":0.125,"top_violation":"NO PARKING"},{"gh6":"tdr5pe","lat":13.20205,"lon":77.67844,"label":"Devanahalli Airport","violations":29,"impact_score":25.8,"avg_severity":0.634,"junction_frac":0.0,"main_road_frac":0.034,"top_violation":"NO PARKING"},{"gh6":"tdr4ve","lat":13.16077,"lon":77.59565,"label":"Chikkajala","violations":18,"impact_score":25.8,"avg_severity":0.85,"junction_frac":0.0,"main_road_frac":0.444,"top_violation":"PARKING IN A MAIN ROAD"},{"gh6":"tdr4jn","lat":13.04315,"lon":77.57069,"label":"Kodigehalli","violations":26,"impact_score":25.6,"avg_severity":0.704,"junction_frac":0.0,"main_road_frac":0.0,"top_violation":"NO PARKING"},{"gh6":"tdr3cq","lat":13.00212,"lon":77.75728,"label":"Mahadevapura","violations":26,"impact_score":25.6,"avg_severity":0.708,"junction_frac":0.0,"main_road_frac":0.0,"top_violation":"WRONG PARKING"},{"gh6":"tdr4ku","lat":13.07742,"lon":77.55853,"label":"Yelahanka","violations":23,"impact_score":25.6,"avg_severity":0.8,"junction_frac":0.0,"main_road_frac":0.0,"top_violation":"WRONG PARKING"},{"gh6":"tdr4j3","lat":13.01473,"lon":77.58394,"label":"BTP030 - Mekhri Circle","violations":20,"impact_score":25.5,"avg_severity":0.66,"junction_frac":0.7,"main_road_frac":0.05,"top_violation":"NO PARKING"},{"gh6":"tdr601","lat":13.01733,"lon":77.7046,"label":"K.R. Pura","violations":29,"impact_score":25.4,"avg_severity":0.621,"junction_frac":0.0,"main_road_frac":0.0,"top_violation":"NO PARKING"},{"gh6":"tdr1ph","lat":12.85431,"lon":77.66213,"label":"Electronic City","violations":30,"impact_score":25.4,"avg_severity":0.6,"junction_frac":0.0,"main_road_frac":0.0,"top_violation":"NO PARKING"},{"gh6":"tdr706","lat":13.19668,"lon":77.70785,"label":"Devanahalli Airport","violations":27,"impact_score":25.4,"avg_severity":0.652,"junction_frac":0.0,"main_road_frac":0.037,"top_violation":"NO PARKING"},{"gh6":"tdr3cm","lat":12.99436,"lon":77.75773,"label":"Mahadevapura","violations":24,"impact_score":25.2,"avg_severity":0.692,"junction_frac":0.0,"main_road_frac":0.125,"top_violation":"NO PARKING"},{"gh6":"tdr1gb","lat":12.96836,"lon":77.50993,"label":"Jnanabharathi","violations":22,"impact_score":25.1,"avg_severity":0.791,"junction_frac":0.0,"main_road_frac":0.0,"top_violation":"WRONG PARKING"},{"gh6":"tdr4pd","lat":13.02022,"lon":77.67478,"label":"Banaswadi","violations":21,"impact_score":24.9,"avg_severity":0.776,"junction_frac":0.0,"main_road_frac":0.095,"top_violation":"WRONG PARKING"},{"gh6":"tdr1we","lat":12.93914,"lon":77.63218,"label":"Ashok Nagar","violations":23,"impact_score":24.9,"avg_severity":0.739,"junction_frac":0.0,"main_road_frac":0.0,"top_violation":"WRONG PARKING"},